crs,iata,station_name,lat,lon
ABW,NA,Abbey Wood,51.490719,0.120343
ABE,NA,Aber,51.575363,-3.23089
ACY,NA,Abercynon,51.64262,-3.329549
ABA,NA,Aberdare,51.715019,-3.44313
ABD,NA,Aberdeen,57.143127,-2.097464
AUR,NA,Aberdour,56.054646,-3.300575
AVY,NA,Aberdovey,52.543934,-4.057118
ABH,NA,Abererch,52.898567,-4.37423
AGV,NA,Abergavenny,51.81665,-3.009679
AGL,NA,Abergele & Pensarn,53.294758,-3.581343
AYW,NA,Aberystwyth,52.414017,-4.081946
ACR,NA,Accrington,53.753193,-2.370016
AAT,NA,Achanalt,57.609921,-4.914243
ACN,NA,Achnasheen,57.579205,-5.072421
ACH,NA,Achnashellach,57.482697,-5.333001
ACK,NA,Acklington,55.307129,-1.651816
ACL,NA,Acle,52.634647,1.543981
ACG,NA,Acocks Green,52.449291,-1.81898
ACB,NA,Acton Bridge,53.265961,-2.602689
ACC,NA,Acton Central,51.508717,-0.263601
AML,NA,Acton Main Line,51.516865,-0.26762
ADD,NA,Adderley Park,52.483505,-1.854184
ADW,NA,Addiewell,55.843449,-3.60655
ASN,NA,Addlestone,51.372414,-0.48571
ADM,NA,Adisham,51.241352,1.199277
ADC,NA,Adlington (Cheshire),53.319542,-2.133571
ADL,NA,Adlington (Lancashire),53.612926,-2.603084
AWK,NA,Adwick,53.572994,-1.181465
AIG,NA,Aigburth,53.364614,-2.927041
ANS,NA,Ainsdale,53.601818,-3.042691
AIN,NA,Aintree,53.473995,-2.956687
AIR,NA,Airbles,55.782504,-3.994447
ADR,NA,Airdrie,55.864029,-3.982952
AYP,NA,Albany Park,51.435745,0.126427
ALB,NA,Albrighton,52.637917,-2.268913
ALD,NA,Alderley Edge,53.303762,-2.236812
AMT,NA,Aldermaston,51.402047,-1.136972
AHT,NA,Aldershot,51.246151,-0.760657
AGT,NA,Aldrington,50.836601,-0.182151
AAP,NA,Alexandra Palace,51.598225,-0.120129
AXP,NA,Alexandra Parade,55.863724,-4.211465
ALX,NA,Alexandria,55.98513,-4.577534
ALF,NA,Alfreton,53.100414,-1.369689
ALW,NA,Allens West,54.524128,-1.363418
ALO,NA,Alloa,56.1179,-3.7872
ASS,NA,Alness,57.694477,-4.249743
ALM,NA,Alnmouth,55.392456,-1.636858
ALR,NA,Alresford,51.853828,0.997114
ASG,NA,Alsager,53.093054,-2.29861
ALN,NA,Althorne,51.647526,0.753603
ALP,NA,Althorpe,53.585262,-0.732558
ABC,NA,Altnabreac,58.388439,-3.705279
AON,NA,Alton,51.151947,-0.967658
ALT,NA,Altrincham,53.3874,-2.347212
ALV,NA,Alvechurch,52.346607,-1.967854
AMB,NA,Ambergate,53.060501,-1.4807
AMY,NA,Amberley,50.896507,-0.542446
AMR,NA,Amersham,51.67439,-0.60613
AMF,NA,Ammanford,51.795933,-3.996783
ANC,NA,Ancaster,52.987888,-0.535596
AND,NA,Anderston,55.859924,-4.271969
ADV,NA,Andover,51.212048,-1.493167
ANZ,NA,Anerley,51.41163,-0.064348
AGR,NA,Angel Road,51.612354,-0.048763
ANG,NA,Angmering,50.816704,-0.489559
ANN,NA,Annan,54.98386,-3.262603
ANL,NA,Anniesland,55.889553,-4.321684
AFV,NA,Ansdell & Fairhaven,53.741558,-2.993077
APY,NA,Apperley Bridge,53.84138,-1.703065
APP,NA,Appleby,54.58032,-2.486692
APD,NA,Appledore (Kent),51.032623,0.816826
APF,NA,Appleford,51.639562,-1.242375
APB,NA,Appley Bridge,53.579029,-2.718906
APS,NA,Apsley,51.732712,-0.463568
ARB,NA,Arbroath,56.559628,-2.588928
ARD,NA,Ardgay,57.881119,-4.362604
AUI,NA,Ardlui,56.302025,-4.721712
ADS,NA,Ardrossan Harbour,55.640854,-4.823461
ASB,NA,Ardrossan South Beach,55.640495,-4.799593
ADN,NA,Ardrossan Town,55.639313,-4.812212
ADK,NA,Ardwick,53.47134,-2.213893
AGS,NA,Argyle Street,55.855938,-4.244574
ARG,NA,Arisaig,56.912617,-5.839141
ARL,NA,Arlesey,52.025938,-0.266178
ARM,NA,Armadale,55.88639,-3.68504
AWT,NA,Armathwaite,54.809611,-2.77209
ARN,NA,Arnside,54.202114,-2.827783
ARR,NA,Arram,53.884567,-0.426833
ART,NA,Arrochar & Tarbet,56.204021,-4.722822
ARU,NA,Arundel,50.848003,-0.546796
ACT,NA,Ascot,51.406185,-0.675827
AUW,NA,Ascott-Under-Wychwood,51.867376,-1.564136
ASH,NA,Ash,51.249222,-0.711856
AHV,NA,Ash Vale,51.272709,-0.721247
ABY,NA,Ashburys,53.471761,-2.194991
ASC,NA,Ashchurch for Tewkesbury,51.997158,-2.10921
ASF,NA,Ashfield,55.889214,-4.2433
AFK,NA,Ashford International,51.14335294,0.875167251
AFS,NA,Ashford Surrey,51.436047,-0.469229
ASY,NA,Ashley,53.355984,-2.341029
AHD,NA,Ashtead,51.317822,-0.308126
AHN,NA,Ashton-Under-Lyne,53.491264,-2.093415
AHS,NA,Ashurst Kent,51.128601,0.152298
ANF,NA,Ashurst New Forest,50.888865,-1.525097
AWM,NA,Ashwell & Morden,52.030586,-0.10934
ASK,NA,Askam,54.189049,-3.204545
ALK,NA,Aslockton,52.951351,-0.898541
ASP,NA,Aspatria,54.759338,-3.331752
APG,NA,Aspley Guise,52.020725,-0.631519
AST,NA,Aston,52.505104,-1.871788
ATH,NA,Atherstone,52.578949,-1.552808
ATN,NA,Atherton,53.528817,-2.478683
ATT,NA,Attadale,57.394871,-5.456549
ATB,NA,Attenborough,52.906322,-1.231262
ATL,NA,Attleborough,52.514214,1.022719
AUK,NA,Auchinleck,55.47031,-4.295389
AUD,NA,Audley End,52.004398,0.20719
AUG,NA,Aughton Park,53.55447,-2.895095
AVM,NA,Aviemore,57.18914,-3.828348
AVF,NA,Avoncliff,51.339596,-2.281342
AVN,NA,Avonmouth,51.500194,-2.699332
AXM,NA,Axminster,50.778976,-3.005613
AYS,NA,Aylesbury,51.813868,-0.815048
AVP,NA,Aylesbury Vale Parkway,51.8327,-0.8623
AYL,NA,Aylesford,51.301384,0.465964
AYH,NA,Aylesham,51.227185,1.209682
AYR,NA,Ayr,55.458248,-4.626878
BAC,NA,Bache,53.209312,-2.892386
BAJ,NA,Baglan,51.61549,-3.811182
BAG,NA,Bagshot,51.364964,-0.688501
BLD,NA,Baildon,53.849682,-1.753717
BIO,NA,Baillieston,55.844761,-4.11454
BAB,NA,Balcombe,51.05624,-0.137881
BDK,NA,Baldock,51.993156,-0.188106
BAL,NA,Balham,51.443169,-0.152403
BHC,NA,Balloch Central,56.002983,-4.583539
BSI,NA,Balmossie,56.475548,-2.83764
BMB,NA,Bamber Bridge,53.726772,-2.660793
BAM,NA,Bamford,53.338985,-1.689078
BNV,NA,Banavie,56.84338,-5.095477
BAN,NA,Banbury,52.060925,-1.327541
BNG,NA,Bangor (Gwynedd),53.222902,-4.135505
BAH,NA,Bank Hall,53.437357,-2.987509
BAD,NA,Banstead,51.329922,-0.214384
BSS,NA,Barassie,55.5611,-4.651181
BLL,NA,Bardon Mill,54.974636,-2.349922
BAR,NA,Bare Lane,54.074473,-2.835331
BGI,NA,Bargeddie,55.851776,-4.071789
BGD,NA,Bargoed,51.692268,-3.229717
BKG,NA,Barking,51.539982,0.080804
BRT,NA,Barlaston,52.942856,-2.168118
BMG,NA,Barming,51.284904,0.479428
BRM,NA,Barmouth,52.72287,-4.056641
BNH,NA,Barnehurst,51.464798,0.160885
BNS,NA,Barnes,51.467014,-0.240711
BNI,NA,Barnes Bridge,51.471676,-0.252051
BTB,NA,Barnetby,53.574219,-0.409679
BAA,NA,Barnham,50.831135,-0.639627
BNL,NA,Barnhill,55.877895,-4.223463
BNY,NA,Barnsley,53.553978,-1.477688
BNP,NA,Barnstaple,51.073532,-4.064032
BTG,NA,Barnt Green,52.361328,-1.994098
BRR,NA,Barrhead,55.804535,-4.396411
BRL,NA,Barrhill,55.097031,-4.781834
BAV,NA,Barrow Haven,53.697128,-0.391427
BWS,NA,Barrow Upon Soar,52.750244,-1.14956
BIF,NA,Barrow-In-Furness,54.118879,-3.22614
BRY,NA,Barry,51.396729,-3.285023
BYD,NA,Barry Docks,51.402392999999996,-3.260749
BYI,NA,Barry Island,51.392361,-3.273405
BYL,NA,Barry Links,56.493206,-2.745444
BAU,NA,Barton-On-Humber,53.688824,-0.443233
BSO,NA,Basildon,51.568672,0.457309
BSK,NA,Basingstoke,51.26804,-1.086896
BBL,NA,Bat & Ball,51.289703,0.194258
BTH,NA,Bath Spa,51.378059,-2.356302
BHG,NA,Bathgate,55.898678,-3.644019
BTL,NA,Batley,53.709129,-1.622734
BTT,NA,Battersby,54.457687,-1.092945
BAK,NA,Battersea Park,51.477272,-0.148151
BAT,NA,Battle,50.91312,0.495169
BLB,NA,Battlesbridge,51.624805,0.565826
BAY,NA,Bayford,51.758808,-0.096074
BCF,NA,Beaconsfield,51.611141,-0.643644
BER,NA,Bearley,52.244252,-1.750259
BRN,NA,Bearsden,55.917202,-4.332945
BSD,NA,Bearsted,51.275589,0.57786
BSL,NA,Beasdale,56.899624,-5.763864
BEU,NA,Beaulieu Road,50.854206,-1.505586
BEL,NA,Beauly,57.478,-4.4698
BEB,NA,Bebington,53.357651,-3.003659
BCC,NA,Beccles,52.458481,1.569547
BEC,NA,Beckenham Hill,51.424767,-0.016497
BKJ,NA,Beckenham Junction,51.411446,-0.027144
BDM,NA,Bedford,52.136175,-0.47945
BSJ,NA,Bedford St Johns,52.129299,-0.467348
BDH,NA,Bedhampton,50.853638,-0.996989
BMT,NA,Bedminster,51.440037,-2.594184
BEH,NA,Bedworth,52.479133,-1.46749
BDW,NA,Bedwyn,51.379715,-1.599077
BEE,NA,Beeston,52.920551,-1.207211
BKS,NA,Bekesbourne,51.261051,1.136125
BFC,NA,Belfast Central,54.5953,-5.9172
BLV,NA,Belle Vue,53.462181,-2.180809
BLG,NA,Bellgrove,55.857182,-4.22547
BGM,NA,Bellingham,51.433826,-0.020421
BLH,NA,Bellshill,55.816605,-4.025222
BLM,NA,Belmont,51.344086,-0.199471
BLP,NA,Belper,53.024555,-1.482622
BEG,NA,Beltring,51.204651,0.403518
BVD,NA,Belvedere,51.491936,0.152088
BEM,NA,Bempton,54.128296,-0.180389
BEY,NA,Ben Rhydding,53.926167,-1.797429
BEF,NA,Benfleet,51.543964,0.561273
BEN,NA,Bentham,54.115791,-2.510918
BTY,NA,Bentley,51.180695,-0.868287
BYK,NA,Bentley (South Yorkshire),53.542865,-1.148788
BAS,NA,Bere Alston,50.485535,-4.200418
BFE,NA,Bere Ferrers,50.450798,-4.181901
BKM,NA,Berkhamsted,51.763638,-0.562498
BKW,NA,Berkswell,52.395851,-1.6428450000000001
BEP,NA,Bermuda Park,52.5029,-1.4726
BYA,NA,Berney Arms,52.589745,1.63043
BBW,NA,Berry Brow,53.622368,-1.797371
BRS,NA,Berrylands,51.39838,-0.282157
BRK,NA,Berwick (Sussex),50.840569,0.164587
BWK,NA,Berwick-Upon-Tweed,55.774872,-2.01112
BES,NA,Bescar Lane,53.623531,-2.914703
BSC,NA,Bescot Stadium,52.562702,-1.991116
BTO,NA,Betchworth,51.247993,-0.26771
BET,NA,Bethnal Green,51.524406,-0.059747
BYC,NA,Betws-Y-Coed,53.092056,-3.80091
BEV,NA,Beverley,53.842281,-0.423855
BEX,NA,Bexhill,50.840679,0.475678
BXY,NA,Bexley,51.440742,0.148248
BXH,NA,Bexleyheath,51.463493,0.133471
BCS,NA,Bicester North,51.903401,-1.150517
BIT,NA,Bicester Village,51.893429,-1.148393
BKL,NA,Bickley,51.40033,0.044272
BID,NA,Bidston,53.40913,-3.078589
BIW,NA,Biggleswade,52.085068,-0.260294
BBK,NA,Bilbrook,52.623695,-2.186101
BIC,NA,Billericay,51.628834,0.418656
BIL,NA,Billingham,54.606327,-1.278525
BIG,NA,Billingshurst,51.014938,-0.450348
BIN,NA,Bingham,52.954536,-0.952044
BIY,NA,Bingley,53.84803,-1.837327
BCG,NA,Birchgrove,51.521687,-3.203502
BCH,NA,Birchington-On-Sea,51.377956,1.300781
BWD,NA,Birchwood,53.41193,-2.52802
BIK,NA,Birkbeck,51.403847,-0.056218
BDL,NA,Birkdale,53.633514,-3.014742
BKC,NA,Birkenhead Central,53.388244,-3.020897
BKQ,NA,Birkenhead Hamilton Square,53.39469,-3.01365
BKN,NA,Birkenhead North,53.404819,-3.057425
BKP,NA,Birkenhead Park,53.397417,-3.03927
13,NA,Birmingham,52.483056,-1.893611
BHI,NA,Birmingham International,52.450673,-1.725149
BMO,NA,Birmingham Moor Street,52.479053,-1.892483
BHM,NA,Birmingham New Street,52.478153,-1.898375
BSW,NA,Birmingham Snow Hill,52.483555,-1.899833
BIA,NA,Bishop Auckland,54.657482,-1.677545
BBG,NA,Bishopbriggs,55.903927,-4.224958
BIS,NA,Bishops Stortford,51.866692,0.16557
BIP,NA,Bishopstone (Hill Rise),50.780014,0.082352
BPT,NA,Bishopton,55.902206,-4.501637
BTE,NA,Bitterne,50.918343,-1.378279
BBN,NA,Blackburn,53.746513,-2.479135
BKH,NA,Blackheath,51.465706,0.008317
BHO,NA,Blackhorse Road,51.586143,-0.04123
BPN,NA,Blackpool North,53.822772,-3.049908
BPB,NA,Blackpool Pleasure Beach,53.788154,-3.053856
BPS,NA,Blackpool South,53.798611,-3.049081
BKR,NA,Blackridge,55.88368,-3.75047
BLK,NA,Blackrod,53.591522,-2.56954
BAW,NA,Blackwater,51.33176,-0.777023
BFF,NA,Blaenau Ffestiniog,52.996284,-3.944449
BLA,NA,Blair Atholl,56.765614,-3.85025
BAI,NA,Blairhill,55.866653,-4.04221
BKT,NA,Blake Street,52.605054,-1.844888
BKD,NA,Blakedown,52.406147,-2.176365
BLT,NA,Blantyre,55.7976,-4.086466
BLO,NA,Blaydon,54.965813,-1.712578
BSB,NA,Bleasby,53.041649,-0.942469
BLY,NA,Bletchley,51.995339,-0.736368
BLX,NA,Bloxwich,52.61853,-2.011783
BWN,NA,Bloxwich North,52.625637,-2.019173
BLN,NA,Blundellsands & Crosby,53.487675,-3.039889
BYB,NA,Blythe Bridge,52.968124,-2.066966
BOD,NA,Bodmin Parkway,50.445822,-4.663026
BOR,NA,Bodorgan,53.204292,-4.418067
BOG,NA,Bognor Regis,50.786594,-0.676384
BGS,NA,Bogston,55.937267,-4.713676
BON,NA,Bolton,53.573983,-2.425661
BTD,NA,Bolton-On-Dearne,53.518986,-1.312217
BKA,NA,Bookham,51.288334,-0.385224
BOC,NA,Bootle (Cumbria),54.290249,-3.394818
BNW,NA,Bootle New Strand,53.453357,-2.994676
BOT,NA,Bootle Oriel Road,53.446559,-2.995791
BBS,NA,Bordesley,52.471844,-1.877771
BRG,NA,Borough Green & Wrotham,51.29295,0.306296
BRH,NA,Borth,52.491001,-4.050236
BOH,NA,Bosham,50.843262,-0.846655
BSN,NA,Boston,52.978802,-0.030949
BOE,NA,Botley,50.916748,-1.258809
BTF,NA,Bottesford,52.944962,-0.796012
BNE,NA,Bourne End,51.576538,-0.711287
BMH,NA,Bournemouth,50.727478,-1.863955
BRV,NA,Bournville,52.426937,-1.926434
BWB,NA,Bow Brickhill,52.003475,-0.696154
BOP,NA,Bowes Park,51.607216,-0.119761
BWG,NA,Bowling,55.931129,-4.493879
BXW,NA,Box Hill & Westhumble,51.253376,-0.329128
BCE,NA,Bracknell,51.413319,-0.751833
BDQ,NA,Bradford Forster Square,53.79575,-1.752505
BDI,NA,Bradford Interchange,53.791196,-1.749701
BOA,NA,Bradford-On-Avon,51.345058,-2.252669
BDN,NA,Brading,50.678509,-1.13801
BTR,NA,Braintree,51.874989,0.558261
BTP,NA,Braintree Freeport,51.869316,0.568258
BML,NA,Bramhall,53.359959,-2.162249
BMY,NA,Bramley (Hants),51.32988,-1.061265
BLE,NA,Bramley (W Yorks),53.803532,-1.630985
BMP,NA,Brampton (Cumbria),54.932655,-2.703814
BRP,NA,Brampton (Suffolk),52.395397,1.543871
BCN,NA,Branchton,55.940647,-4.803598
BND,NA,Brandon,52.454479,0.624116
BSM,NA,Branksome,50.727528,-1.919211
BYS,NA,Braystones,54.43956,-3.543406
BDY,NA,Bredbury,53.422939,-2.109823
BRC,NA,Breich,55.827351,-3.668147
BFD,NA,Brentford,51.487804,-0.309048
BRE,NA,Brentwood,51.61322,0.30083
BWO,NA,Bricket Wood,51.705223,-0.358846
BEA,NA,Bridge of Allan,56.157429,-3.956166
BRO,NA,Bridge of Orchy,56.515926,-4.763048
BGN,NA,Bridgend,51.506481,-3.576296
BDG,NA,Bridgeton,55.849968,-4.226668
BWT,NA,Bridgwater,51.128025,-2.99031
BDT,NA,Bridlington,54.084545,-0.200659
BRF,NA,Brierfield,53.824535,-2.236959
BGG,NA,Brigg,53.549137,-0.486094
BGH,NA,Brighouse,53.698734,-1.781855
BTN,NA,Brighton,50.829659,-0.141234
BMD,NA,Brimsdown,51.655224,-0.031022
BNT,NA,Brinnington,53.431881,-2.134097
BPW,NA,Bristol Parkway,51.514061,-2.53461
BRI,NA,Bristol Temple Meads,51.449093,-2.581349
BHD,NA,Brithdir,51.710266,-3.228765
RBS,NA,British Steel Redcar,54.609263,-1.108324
BNF,NA,Briton Ferry,51.637852,-3.8193
BRX,NA,Brixton,51.463245,-0.114164
BGE,NA,Broad Green,53.40654,-2.893267
BDB,NA,Broadbottom,53.440968,-2.01653
BSR,NA,Broadstairs,51.360653,1.43317
BCU,NA,Brockenhurst,50.816708,-1.574112
BHS,NA,Brockholes,53.597149,-1.770299
BCY,NA,Brockley,51.464684,-0.037797
BNR,NA,Brockley Whins,54.958672,-1.462749
BOM,NA,Bromborough,53.322146,-2.987058
BMR,NA,Bromborough Rake,53.329899,-2.989644
BMC,NA,Bromley Cross,53.613743,-2.409614
BMN,NA,Bromley North,51.408894,0.017325
BMS,NA,Bromley South,51.399887,0.018374
BMV,NA,Bromsgrove,52.322662,-2.048379
BSY,NA,Brondesbury,51.545574,-0.203063
BSP,NA,Brondesbury Park,51.540896,-0.209955
BPK,NA,Brookmans Park,51.720955,-0.204811
BKO,NA,Brookwood,51.303215,-0.635753
BME,NA,Broome,52.422745,-2.88524
BMF,NA,Broomfleet,53.740131,-0.673328
BRA,NA,Brora,58.012657,-3.853251
BUH,NA,Brough,53.726452,-0.578255
BYF,NA,Broughty Ferry,56.467213,-2.873153
BXB,NA,Broxbourne,51.745712,-0.011157
BCV,NA,Bruce Grove,51.592918,-0.06982
BDA,NA,Brundall,52.619747,1.439316
BGA,NA,Brundall Gardens,52.623035,1.418896
BSU,NA,Brunstane,55.94143,-3.10064
BRW,NA,Brunswick,53.382153,-2.975665
BRU,NA,Bruton,51.111584,-2.447103
BYN,NA,Bryn,53.499893,-2.647233
BUC,NA,Buckenham,52.59816,1.47013
BCK,NA,Buckley,53.163021,-3.055948
BUK,NA,Bucknell,52.357525,-2.948551
BSV,NA,Buckshaw Parkway,53.67283,-2.66447
BGL,NA,Bugle,50.399979,-4.791736
BHR,NA,Builth Road,52.169289,-3.427068
BLW,NA,Bulwell,52.999625,-1.196115
BUE,NA,Bures,51.97094,0.769021
BUG,NA,Burgess Hill,50.953552,-0.127749
BUY,NA,Burley Park,53.808743,-1.576277
BUW,NA,Burley-In-Wharfedale,53.908112,-1.753363
BNA,NA,Burnage,53.421205,-2.215896
BUD,NA,Burneside,54.355305,-2.766231
BNM,NA,Burnham,51.523538,-0.647335
BUU,NA,Burnham-On-Crouch,51.633526,0.813459
BUB,NA,Burnley Barracks,53.791237,-2.258014
BNC,NA,Burnley Central,53.793776,-2.244644
BYM,NA,Burnley Manchester Road,53.784962,-2.248883
BUI,NA,Burnside,55.817123,-4.204029
BTS,NA,Burntisland,56.057133,-3.233214
BCB,NA,Burscough Bridge,53.60519,-2.841758
BCJ,NA,Burscough Junction,53.598011,-2.840105
BUO,NA,Bursledon,50.882858,-1.304835
BUJ,NA,Burton Joyce,52.984047,-1.040698
BUT,NA,Burton-On-Trent,52.805798,-1.64246
BSE,NA,Bury St Edmunds,52.253727,0.713355
BUS,NA,Busby,55.780109,-4.262551
BHK,NA,Bush Hill Park,51.642365,-0.06916
BSH,NA,Bushey,51.644669,-0.384806
BUL,NA,Butlers Lane,52.592376,-1.838163
BXD,NA,Buxted,50.990475000000004,0.131651
BUX,NA,Buxton,53.26058,-1.913086
BFN,NA,Byfleet & New Haw,51.349869,-0.480714
BYE,NA,Bynea,51.67276,-4.098396
CAD,NA,Cadoxton,51.412422,-3.248087
CGW,NA,Caergwrle,53.107922,-3.033069
CPH,NA,Caerphilly,51.571903,-3.217805
CWS,NA,Caersws,52.516262,-3.43387
CAC,NA,Caldercruix,55.88791,-3.88978
CDT,NA,Caldicot,51.58474,-2.760598
CIR,NA,Caledonian Road & Barnsbury,51.543301,-0.115177
CSK,NA,Calstock,50.497487,-4.208665
CDU,NA,Cam & Dursley,51.71701,-2.366194
CAM,NA,Camberley,51.335911,-0.745328
CBN,NA,Camborne,50.210392,-5.297921
CBG,NA,Cambridge,52.194519,0.137584
CBH,NA,Cambridge Heath,51.53157,-0.057997
CBL,NA,Cambuslang,55.819458,-4.173839
CMD,NA,Camden Road,51.541889,-0.139764
CMO,NA,Camelon,56.006775,-3.817015
ZCW,NA,Canada Water,51.49823,-0.05076
CNL,NA,Canley,52.399418,-1.547232
CAO,NA,Cannock,52.686768,-2.022158
CNN,NA,Canonbury,51.548747,-0.091614
CBE,NA,Canterbury East,51.275261,1.075434
CBW,NA,Canterbury West,51.284279,1.074608
CNY,NA,Cantley,52.578907,1.512899
CPU,NA,Capenhurst,53.260155,-2.942908
CBB,NA,Carbis Bay,50.19746,-5.463815
CDD,NA,Cardenden,56.141308,-3.261651
CDB,NA,Cardiff Bay,51.466324,-3.166049
CDF,NA,Cardiff Central,51.475193,-3.177794
XCF,CWL,Cardiff International Airport,51.396667,-3.343333
CDQ,NA,Cardiff Queen Street,51.482464,-3.170782
CDO,NA,Cardonald,55.853252,-4.340297
CDR,NA,Cardross,55.960163,-4.652782
CRF,NA,Carfin,55.806938,-3.956112
CAK,NA,Cark,54.177513,-2.972746
CAR,NA,Carlisle,54.890675,-2.933833
CTO,NA,Carlton,52.964573,-1.078357
CLU,NA,Carluke,55.730408,-3.848761
CMN,NA,Carmarthen,51.853233,-4.305732
CML,NA,Carmyle,55.834053,-4.161873
CNF,NA,Carnforth,54.129688,-2.771244
CAN,NA,Carnoustie,56.500618,-2.7066
CAY,NA,Carntyne,55.854412,-4.17898
CPK,NA,Carpenders Park,51.627885,-0.385578
CAG,NA,Carrbridge,57.279873,-3.829541
CSH,NA,Carshalton,51.367859,-0.16693
CSB,NA,Carshalton Beeches,51.357117,-0.17023
CRS,NA,Carstairs,55.69075,-3.668696
CDY,NA,Cartsdyke,55.942261,-4.731633
CBP,NA,Castle Bar Park,51.522865,-0.331575
CLC,NA,Castle Cary,51.099583,-2.522683
CFD,NA,Castleford,53.724171,-1.355852
CAS,NA,Castleton,53.591804,-2.178125
CSM,NA,Castleton Moor,54.467297,-0.947707
CAT,NA,Caterham,51.282803,-0.078539
CTF,NA,Catford,51.444706,-0.025701
CFB,NA,Catford Bridge,51.444725,-0.027142
CYS,NA,Cathays,51.488678,-3.178149
CCT,NA,Cathcart,55.817879,-4.261552
CTL,NA,Cattal,53.997515,-1.319808
CAU,NA,Causeland,50.405525,-4.466937
CYB,NA,Cefn-Y-Bedd,53.098511,-3.031972
CTH,NA,Chadwell Heath,51.567905,0.128263
CFH,NA,Chafford Hundred,51.502792,0.290938
CFO,NA,Chalfont & Latimer,51.66835,-0.560646
CHW,NA,Chalkwell,51.53883,0.6706
CFR,NA,Chandlers Ford,50.983,-1.3845
CEF,NA,Chapel-En-Le-Frith,53.312405,-1.918915
CLN,NA,Chapeltown,53.464046,-1.466743
CPN,NA,Chapleton,51.01577,-4.024398
CWC,NA,Chappel & Wakes Colne,51.925312,0.758944
CHG,NA,Charing,51.208649,0.790337
CHC,NA,Charing Cross (Glasgow),55.865345,-4.270689
CBY,NA,Charlbury,51.872929,-1.490133
CTN,NA,Charlton,51.486904,0.030852
CRT,NA,Chartham,51.256958,1.018303
CSR,NA,Chassen Road,53.44605,-2.368171
CTE,NA,Chatelherault,55.76521,-4.00466
CTM,NA,Chatham,51.381161,0.520559
CHT,NA,Chathill,55.536404,-1.706846
CHU,NA,Cheadle Hulme,53.375956,-2.188125
CHE,NA,Cheam,51.35601,-0.2148
CED,NA,Cheddington,51.857908,-0.662168
CEL,NA,Chelford,53.270744,-2.280375
CHM,NA,Chelmsford,51.736595,0.469316
CLD,NA,Chelsfield,51.35603,0.108373
CNM,NA,Cheltenham Spa,51.896465,-2.100245
CPW,NA,Chepstow,51.640137,-2.67193
CYT,NA,Cherry Tree,53.732868,-2.518401
CHY,NA,Chertsey,51.387108,-0.509667
CHN,NA,Cheshunt,51.702747,-0.023171
CSN,NA,Chessington North,51.364483,-0.300661
CSS,NA,Chessington South,51.356491,-0.308144
CTR,NA,Chester,53.196815,-2.880152
CRD,NA,Chester Road,52.535575,-1.832582
CLS,NA,Chester-Le-Street,54.854885,-1.577847
CHD,NA,Chesterfield,53.238209,-1.42011
CSW,NA,Chestfield & Swalecliffe,51.360004000000004,1.068182
CNO,NA,Chetnole,50.866428,-2.574072
CCH,NA,Chichester,50.831821,-0.783032
CIL,NA,Chilham,51.244549,0.975937
CHL,NA,Chilworth,51.21553,-0.523795
CHI,NA,Chingford,51.63385,0.009955
CLY,NA,Chinley,53.340275,-1.9444
CPM,NA,Chippenham,51.462162,-2.115123
CHP,NA,Chipstead,51.309444,-0.169259
CRK,NA,Chirk,52.932793,-3.066708
CIT,NA,Chislehurst,51.405506,0.057437
CHK,NA,Chiswick,51.4809,-0.267538
CHO,NA,Cholsey,51.570135,-1.157942
CRL,NA,Chorley,53.652428,-2.626693
CLW,NA,Chorleywood,51.654188,-0.51846
CHR,NA,Christchurch,50.738148,-1.784566
CHH,NA,Christs Hospital,51.050629,-0.36353799999999997
CTW,NA,Church & Oswaldtwistle,53.750431,-2.391216
CHF,NA,Church Fenton,53.827671,-1.226652
CTT,NA,Church Stretton,52.536606,-2.803485
CIM,NA,Cilmeri,52.150936,-3.45719
CTK,NA,City Thameslink,51.514336,-0.103412
CLT,NA,Clacton-On-Sea,51.793953,1.154134
CLA,NA,Clandon,51.263832,-0.503622
CPY,NA,Clapham (Nth Yorkshire),54.105392,-2.409858
CLP,NA,Clapham High Street,51.46534,-0.1328
CLJ,NA,Clapham Junction,51.464134,-0.170281
CPT,NA,Clapton,51.56213,-0.056685
CLR,NA,Clarbeston Road,51.852207,-4.88221
CKS,NA,Clarkston,55.789753,-4.275865
CLV,NA,Claverdon,52.276424,-1.696566
CLG,NA,Claygate,51.360664,-0.348207
CLE,NA,Cleethorpes,53.56316,-0.029584
CEA,NA,Cleland,55.804073,-3.909695
CLI,NA,Clifton,53.522503,-2.314811
CFN,NA,Clifton Down,51.46423,-2.611761
CLH,NA,Clitheroe,53.87345,-2.394365
CLK,NA,Clock House,51.408096,-0.041668
CUW,NA,Clunderwen,51.8405,-4.731915
CYK,NA,Clydebank,55.900562,-4.403927
CBC,NA,Coatbridge Central,55.863213,-4.032443
CBS,NA,Coatbridge Sunnyside,55.866886,-4.027847
COA,NA,Coatdyke,55.864567,-4.005343
CSD,NA,Cobham & Stoke Dabernon,51.318077,-0.389917
CSL,NA,Codsall,52.627262,-2.200891
CGN,NA,Cogan,51.445396,-3.189974
COL,NA,Colchester,51.900478,0.894085
CET,NA,Colchester Town,51.886505,0.904055
CEH,NA,Coleshill Parkway,52.5164,-1.7081
CLM,NA,Collingham,53.144047,-0.748588
CLL,NA,Collington,50.839272,0.457142
CNE,NA,Colne,53.85478,-2.181087
CWL,NA,Colwall,52.080284,-2.357489
CWB,NA,Colwyn Bay,53.296349,-3.725462
CME,NA,Combe,51.832277,-1.392817
COM,NA,Commondale,54.481018,-0.97514
CNG,NA,Congleton,53.157637,-2.192754
CNS,NA,Conisbrough,53.48885,-1.234333
CON,NA,Connel Ferry,56.451981,-5.384973
CBD,NA,Conon Bridge,57.5617,-4.4404
CEY,NA,Cononley,53.917351,-2.010631
CNP,NA,Conway Park,53.386219,-3.026886
CNW,NA,Conwy,53.280093,-3.83046
COB,NA,Cooden Beach,50.83271,0.426969
COO,NA,Cookham,51.556873,-0.721948
CBR,NA,Cooksbridge,50.903938,-0.010272
COE,NA,Coombe,50.44479,-4.481655
COP,NA,Copplestone,50.814228,-3.751624
CRB,NA,Corbridge,54.966152,-2.017141
COR,NA,Corby,52.489196,-0.687944
CKH,NA,Corkerhill,55.836494,-4.323322
CKL,NA,Corkickle,54.541657,-3.582155
CPA,NA,Corpach,56.842724,-5.121662
CRR,NA,Corrour,56.760181,-4.690966
COY,NA,Coryton,51.520512,-3.230858
CSY,NA,Coseley,52.545738,-2.086051
COS,NA,Cosford,52.645031,-2.301479
CSA,NA,Cosham,50.841644,-1.068259
CGM,NA,Cottingham,53.781826,-0.406402
COT,NA,Cottingley,53.767437,-1.588832
CDS,NA,Coulsdon South,51.315231,-0.13746
CDN,NA,Coulsdon Town,51.32243,-0.13429
COV,NA,Coventry,52.400787,-1.513466
CAA,NA,Coventry Arena,52.447032,-1.494559
CWN,NA,Cowden,51.155441,0.110653
COW,NA,Cowdenbeath,56.111679,-3.344314
CRA,NA,Cradley Heath,52.469177,-2.08976
CGD,NA,Craigendoran,55.99485,-4.711291
CRM,NA,Cramlington,55.088604,-1.598887
CBK,NA,Cranbrook (Devon),50.7501,-3.4206
CRV,NA,Craven Arms,52.441975,-2.837077
CRW,NA,Crawley,51.111874,-0.187083
CRY,NA,Crayford,51.448273,0.178826
CDI,NA,Crediton,50.783375,-3.646912
CES,NA,Cressing,51.852028,0.580186
CSG,NA,Cressington,53.3588,-2.91172
CWD,NA,Creswell (Derbys),53.264008,-1.215865
CRE,NA,Crewe,53.089607,-2.432987
CKN,NA,Crewkerne,50.873337,-2.778815
CWH,NA,Crews Hill,51.684334,-0.106441
CNR,NA,Crianlarich,56.389652,-4.617778
CCC,NA,Criccieth,52.918312,-4.236972
CRI,NA,Cricklewood,51.559227,-0.214071
CFF,NA,Croftfoot,55.818455,-4.229643
CFT,NA,Crofton Park,51.454777,-0.03678
CMR,NA,Cromer,52.930595,1.292778
CMF,NA,Cromford,53.112915,-1.548788
CKT,NA,Crookston,55.84388,-4.36049
CRG,NA,Cross Gates,53.804638,-1.451798
CFL,NA,Crossflatts,53.858829,-1.844886
COI,NA,Crosshill,55.833225,-4.257648
CKY,NA,Crosskeys,51.621,-3.1261
CMY,NA,Crossmyloof,55.833626,-4.284813
CSO,NA,Croston,53.66756,-2.777717
CRH,NA,Crouch Hill,51.571205,-0.116907
COH,NA,Crowborough,51.046085,0.188422
CWU,NA,Crowhurst,50.888702,0.500984
CWE,NA,Crowle,53.589725,-0.817042
CRN,NA,Crowthorne,51.366356,-0.819194
CRO,NA,Croy,55.955734,-4.035697
CYP,NA,Crystal Palace,51.417603,-0.072899
CUD,NA,Cuddington,53.23991,-2.599329
CUF,NA,Cuffley,51.708675,-0.109761
CUM,NA,Culham,51.653773,-1.236445
CUA,NA,Culrain,57.919842,-4.405676
CUB,NA,Cumbernauld,55.941326,-3.982089
CUP,NA,Cupar,56.317043,-3.008772
CUH,NA,Curriehill,55.901703,-3.317849
CUX,NA,Cuxton,51.374298,0.462693
CMH,NA,Cwmbach,51.701885,-3.413774
CWM,NA,Cwmbran,51.656544,-3.016233
CYN,NA,Cynghordy,52.051689,-3.747095
DDK,NA,Dagenham Dock,51.526237,0.14505
ZDE,NA,Dagenham East L.T.,51.532065,0.146965
DSY,NA,Daisy Hill,53.539389,-2.516212
DAG,NA,Dalgety Bay,56.044178,-3.354809
DAL,NA,Dalmally,56.400272,-4.9832
DAK,NA,Dalmarnock,55.839371,-4.21647
DAM,NA,Dalmeny,55.986362,-3.381645
DMR,NA,Dalmuir,55.911793,-4.427038
DLR,NA,Dalreoch,55.947365,-4.578226
DLY,NA,Dalry,55.705395,-4.711899
DLS,NA,Dalston (Cumbria),54.846203,-2.988866
DLJ,NA,Dalston Junction,51.546139,-0.07544
DLK,NA,Dalston Kingsland,51.548035,-0.074594
DLT,NA,Dalton,54.15424,-3.179031
DLW,NA,Dalwhinnie,56.934334,-4.246498
DNY,NA,Danby,54.466068,-0.910704
DCT,NA,Danescourt,51.505199,-3.23332
DZY,NA,Danzey,52.324329,-1.819493
DAR,NA,Darlington,54.520462,-1.54732
DAN,NA,Darnall,53.381084,-1.410661
DSM,NA,Darsham,52.272812,1.522343
DFD,NA,Dartford,51.447548,0.217643
DRT,NA,Darton,53.58836,-1.531646
DWN,NA,Darwen,53.69804,-2.464958
DAT,NA,Datchet,51.483303,-0.579978
DVN,NA,Davenport,53.390719,-2.153234
DWL,NA,Dawlish,50.580692,-3.464583
DWW,NA,Dawlish Warren,50.599311,-3.443903
DEA,NA,Deal,51.223129,1.398559
DEN,NA,Dean,51.042629,-1.634802
DGT,NA,Deansgate,53.473961,-2.250061
DGY,NA,Deganwy,53.294739,-3.833424
DHN,NA,Deighton,53.669018,-1.751739
DLM,NA,Delamere,53.228767,-2.666577
DBD,NA,Denby Dale,53.572628,-1.663215
DNM,NA,Denham,51.578495,-0.497633
DGC,NA,Denham Golf Club,51.580544,-0.517774
DMK,NA,Denmark Hill,51.468243,-0.089475
DNT,NA,Dent,54.282597,-2.363987
DTN,NA,Denton,53.457087,-2.131648
DEP,NA,Deptford,51.478897,-0.02711
DBY,NA,Derby,52.916381,-1.462555
DBR,NA,Derby Road,52.04953,1.182332
DEB,NA,Dereham Market Place,52.684896,0.945983
DPT,NA,Devonport,50.378132,-4.171534
DEW,NA,Dewsbury,53.692089,-1.633487
DID,NA,Didcot Parkway,51.611275,-1.242614
DIG,NA,Digby & Sowton,50.716434,-3.474574
DMH,NA,Dilton Marsh,51.248928,-2.207723
DNS,NA,Dinas Powys,51.431614,-3.21839
DMG,NA,Dinas Rhondda,51.617073,-3.437123
DGL,NA,Dingle Road,51.440109,-3.179776
DIN,NA,Dingwall,57.594238,-4.422611
DND,NA,Dinsdale,54.51474,-1.467051
DTG,NA,Dinting,53.449382,-1.970276
DSL,NA,Disley,53.358146,-2.042465
DIS,NA,Diss,52.373096,1.123274
DOC,NA,Dockyard,50.382553,-4.175957
DOD,NA,Dodworth,53.545216,-1.530617
DOL,NA,Dolau,52.295223,-3.263955
DLH,NA,Doleham,50.918686,0.610732
DLG,NA,Dolgarrog,53.186123,-3.822808
DWD,NA,Dolwyddelan,53.052105,-3.884288
DON,NA,Doncaster,53.521469,-1.140225
DCH,NA,Dorchester South,50.708752,-2.437593
DCW,NA,Dorchester West,50.710526,-2.443274
DOR,NA,Dore & Totley,53.327625,-1.514997
DKG,NA,Dorking,51.241615,-0.323822
DPD,NA,Dorking Deepdene,51.238918,-0.323921
DKT,NA,Dorking West,51.236443,-0.339762
DMS,NA,Dormans,51.15567,-0.005183
DDG,NA,Dorridge,52.371861,-1.753209
DVH,NA,Dove Holes,53.300005,-1.890678
DVP,NA,Dover Priory,51.125988,1.304227
DVC,NA,Dovercourt,51.938892,1.280724
DVY,NA,Dovey Junction,52.564133,-3.925273
DOW,NA,Downham Market,52.60471,0.365751
DRG,NA,Drayton Green,51.516326,-0.330089
DRY,NA,Drayton Manor,52.61095,-1.71345
DYP,NA,Drayton Park,51.552124,-0.104723
DRM,NA,Drem,56.005981,-2.785752
DRF,NA,Driffield,54.001526,-0.434627
DRI,NA,Drigg,54.376968,-3.444066
DTW,NA,Droitwich Spa,52.26862,-2.158239
DRO,NA,Dronfield,53.301357,-1.468768
DMC,NA,Drumchapel,55.904926,-4.364204
DFR,NA,Drumfrochar,55.941292,-4.774822
DRU,NA,Drumgelloch,55.867233,-3.95114
DMY,NA,Drumry,55.904495,-4.386583
DUD,NA,Duddeston,52.488018,-1.871842
DDP,NA,Dudley Port,52.524517,-2.049401
DFI,NA,Duffield,52.987713,-1.486035
DRN,NA,Duirinish,57.319847,-5.692103
DST,NA,Duke Street,55.859207,-4.212814
DUL,NA,Dullingham,52.200943,0.366197
DBC,NA,Dumbarton Central,55.946705,-4.56697
DBE,NA,Dumbarton East,55.942478,-4.55387
DUM,NA,Dumbreck,55.841255,-4.309216
DMF,NA,Dumfries,55.072395,-3.605261
DMP,NA,Dumpton Park,51.345566,1.426291
DUN,NA,Dunbar,55.998428,-2.514625
DBL,NA,Dunblane,56.186001,-3.967296
DCG,NA,Duncraig,57.336727,-5.637282
DEE,NA,Dundee,56.456669,-2.970576
DFL,NA,Dunfermline Queen Margaret,56.080706,-3.42164
DFE,NA,Dunfermline Town,56.068233,-3.452033
DKD,NA,Dunkeld & Birnam,56.557301,-3.578097
DNL,NA,Dunlop,55.711926,-4.532435
DUO,NA,Dunoon,55.94681,-4.92252
DNO,NA,Dunrobin Castle,57.986111,-3.946595
DUU,NA,Duns,55.778865,-2.342808
DOT,NA,Dunston,54.952164,-1.648648
DNG,NA,Dunton Green,51.296425,0.171616
DHM,NA,Durham,54.779408,-1.581746
DUR,NA,Durrington-On-Sea,50.817463,-0.411463
DYC,NA,Dyce,57.205002,-2.191978
DYF,NA,Dyffryn Ardudwy,52.78857,-4.104242
EAG,NA,Eaglescliffe,54.529449,-1.349426
EAL,NA,Ealing Broadway,51.51466,-0.300843
ZEC,NA,Ealing Common,51.51,-0.28805
ZET,NA,Earl's Court L.T.,51.49138,-0.1936
ERL,NA,Earlestown,53.451139,-2.637674
EAR,NA,Earley,51.441051,-0.917989
EAD,NA,Earlsfield,51.441929,-0.188423
EAS,NA,Earlston,55.639072,-2.68
ELD,NA,Earlswood (Surrey),51.227631,-0.171078
EWD,NA,Earlswood (West Midlands),52.366638,-1.861907
EBL,NA,East Boldon,54.9468,-1.420767
ECW,NA,East Cowes,50.75873,-1.29107
ECR,NA,East Croydon,51.375679,-0.093335
EDY,NA,East Didsbury,53.410206,-2.22111
EDW,NA,East Dulwich,51.460911,-0.081151
EFL,NA,East Farleigh,51.255112,0.48498
EGF,NA,East Garforth,53.791622,-1.363933
EGR,NA,East Grinstead,51.126213,-0.017887
EKL,NA,East Kilbride,55.765388,-4.18199
EML,NA,East Malling,51.285748,0.439308
EMD,NA,East Midlands Parkway,52.862,-1.263
ETL,NA,East Tilbury,51.485065,0.412479
EWR,NA,East Worthing,50.822071,-0.354517
EBN,NA,Eastbourne,50.769085,0.281847
EBK,NA,Eastbrook,51.437126,-3.207031
EST,NA,Easterhouse,55.860157,-4.107389
ERA,NA,Eastham Rake,53.307532,-2.9812
ESL,NA,Eastleigh,50.968559,-1.350563
EGN,NA,Eastrington,53.75481,-0.786612
EBD,NA,Ebbsfleet International,51.443009000000004,0.320887
EBV,NA,Ebbw Vale Parkway,51.7573,-3.1965
EBB,NA,Ebbw Vale Town,51.782007,-3.205996
ECC,NA,Eccles,53.485443,-2.333014
ECS,NA,Eccles Road,52.470585,0.969656
ECL,NA,Eccleston Park,53.430665,-2.780555
EDL,NA,Edale,53.36477,-1.817395
EDN,NA,Eden Park,51.390762,-0.026587
EBR,NA,Edenbridge,51.208508,0.060099
EBT,NA,Edenbridge Town,51.200287,0.06689
EDG,NA,Edge Hill,53.402663,-2.946986
EGY,NA,Edinburgh Gateway,55.941,-3.32
EDP,NA,Edinburgh Park,55.927615,-3.307829
EDB,NA,Edinburgh Waverley,55.952442,-3.188236
EDR,NA,Edmonton Green,51.623802,-0.059665
EFF,NA,Effingham Junction,51.291504,-0.419536
EGG,NA,Eggesford,50.887848,-3.875235
EGH,NA,Egham,51.428925,-0.545701
EGT,NA,Egton,54.437679,-0.761896
EPH,NA,Elephant & Castle,51.494469,-0.098462
ELG,NA,Elgin,57.64299,-3.31163
ELP,NA,Ellesmere Port,53.282097,-2.895403
ELE,NA,Elmers End,51.398335,-0.049263
ESD,NA,Elmstead Woods,51.417435,0.043594
ESW,NA,Elmswell,52.238201,0.911625
ELR,NA,Elsecar,53.498924,-1.428617
ESM,NA,Elsenham,51.92038,0.22779
ELS,NA,Elstree & Borehamwood,51.652836,-0.279779
ELW,NA,Eltham,51.455101,0.0496
ELO,NA,Elton & Orston,52.951843,-0.855362
ELY,NA,Ely,52.390846,0.266105
EMP,NA,Emerson Park,51.56889,0.220658
EMS,NA,Emsworth,50.851326,-0.938784
ECP,NA,Energlyn & Churchill Park,51.5838,-3.2287
ENC,NA,Enfield Chase,51.652607,-0.090404
ENL,NA,Enfield Lock,51.671379,-0.028875
ENF,NA,Enfield Town,51.651524,-0.078891
ENT,NA,Entwistle,53.655591,-2.413983
EPS,NA,Epsom,51.334339,-0.268756
EPD,NA,Epsom Downs,51.321365,-0.243411
ERD,NA,Erdington,52.528435,-1.839297
ERI,NA,Eridge,51.089024,0.200452
ERH,NA,Erith,51.481621,0.174651
ESH,NA,Esher,51.379642,-0.354714
EKB,NA,Eskbank,55.88956,-3.07845
EXR,NA,Essex Road,51.540302,-0.096552
ETC,NA,Etchingham,51.010479,0.441935
EBA,NA,Euxton Balshaw Lane,53.670071,-2.675045
EVE,NA,Evesham,52.098793,-1.947413
EWE,NA,Ewell East,51.345612,-0.24106
EWW,NA,Ewell West,51.349445,-0.256711
74,NA,Exeter,50.716667,-3.516667
EXC,NA,Exeter Central,50.726471,-3.532973
EXD,NA,Exeter St Davids,50.729019,-3.544387
EXT,NA,Exeter St Thomas,50.716529,-3.538759
EXG,NA,Exhibition Centre,55.860619,-4.283207
EXM,NA,Exmouth,50.620937,-3.415035
EXN,NA,Exton,50.668255,-3.443337
EYN,NA,Eynsford,51.362377,0.203465
FRB,NA,Fairbourne,52.696018,-4.049464
FRF,NA,Fairfield,53.471215,-2.14581
FRL,NA,Fairlie,55.752514,-4.853834
FRW,NA,Fairwater,51.491714,-3.232963
FCN,NA,Falconwood,51.459087,0.078571
FKG,NA,Falkirk Grahamston,56.002735,-3.786359
FKK,NA,Falkirk High,55.991863,-3.792276
FOC,NA,Falls of Cruachan,56.386242,-5.114992
FMR,NA,Falmer,50.862064,-0.087364
FAL,NA,Falmouth Docks,50.15075,-5.0559
FMT,NA,Falmouth Town,50.148392,-5.065443
FRM,NA,Fareham,50.853352,-1.19162
FNB,NA,Farnborough Main,51.296471,-0.756436
FNN,NA,Farnborough North,51.301723,-0.743385
FNC,NA,Farncombe,51.197639,-0.604522
FNH,NA,Farnham,51.211422,-0.793093
FNR,NA,Farningham Road,51.401337,0.235533
FNW,NA,Farnworth,53.549999,-2.387857
ZFD,NA,Farringdon,51.520071,-0.104665
FLD,NA,Fauldhouse,55.822163,-3.719006
FAV,NA,Faversham,51.311436,0.891278
FGT,NA,Faygate,51.095943,-0.263403
FAZ,NA,Fazakerley,53.469063,-2.936729
FRN,NA,Fearn,57.777828,-3.994245
FEA,NA,Featherstone,53.679253,-1.359562
FLX,NA,Felixstowe,51.967449,1.352707
FEG,NA,Fellgate,54.957,-1.4878
FEL,NA,Feltham,51.447845,-0.40983
FNT,NA,Feniton,50.787022,-3.285259
FEN,NA,Fenny Stratford,52.000103,-0.716636
FER,NA,Fernhill,51.685932,-3.394469
FRY,NA,Ferriby,53.716625,-0.508878
FYS,NA,Ferryside,51.76833,-4.36952
FFA,NA,Ffairfach,51.87244,-3.992916
FIL,NA,Filey,54.209946,-0.293351
FIT,NA,Filton Abbey Wood,51.509438,-2.561933
FNY,NA,Finchley Road & Frognal,51.550198,-0.183324
FPK,NA,Finsbury Park,51.564724,-0.105642
FIN,NA,Finstock,51.85305,-1.47003
FSB,NA,Fishbourne (Sussex),50.839352,-0.815495
FSG,NA,Fishersgate,50.834469,-0.219161
FGW,NA,Fishguard & Goodwick,52.0035,-4.9948
FGH,NA,Fishguard Harbour,52.011505,-4.985713
FSK,NA,Fiskerton,53.060253,-0.912181
FZW,NA,Fitzwilliam,53.632587,-1.375391
FWY,NA,Five Ways,52.470078,-1.913116
FLE,NA,Fleet,51.290947,-0.831169
FLM,NA,Flimby,54.689815,-3.520544
FLN,NA,Flint,53.249516,-3.13302
FLT,NA,Flitwick,52.003457,-0.4952
FLI,NA,Flixton,53.443746,-2.383878
FLF,NA,Flowery Field,53.461737,-2.080965
78,NA,Folkestone,51.081,1.166
FKC,NA,Folkestone Central,51.082985,1.168331
FKW,NA,Folkestone West,51.085163,1.154209
FOD,NA,Ford,50.829506,-0.578611
FOG,NA,Forest Gate,51.549976,0.023568
FOH,NA,Forest Hill,51.438869,-0.053297
FBY,NA,Formby,53.553796,-3.070706
FOR,NA,Forres,57.609661,-3.62847
FRS,NA,Forsinard,58.356998,-3.896903
FTM,NA,Fort Matilda,55.958809,-4.7953
FTW,NA,Fort William,56.820625,-5.106721
FOK,NA,Four Oaks,52.579662,-1.8273
FOX,NA,Foxfield,54.259041,-3.215796
FXN,NA,Foxton,52.119526,0.056572
FRT,NA,Frant,51.104321,0.294034
FTN,NA,Fratton,50.795818,-1.073422
FRE,NA,Freshfield,53.566494,-3.072014
FFD,NA,Freshford,51.342251,-2.30146
FML,NA,Frimley,51.311653,-0.747426
FRI,NA,Frinton-On-Sea,51.838314,1.242907
FZH,NA,Frizinghall,53.820957,-1.769072
FRD,NA,Frodsham,53.295853,-2.723145
FRO,NA,Frome,51.227131,-2.309302
FLW,NA,Fulwell,51.433525,-0.349893
FNV,NA,Furness Vale,53.348385,-1.989445
FZP,NA,Furze Platt,51.533082,-0.728467
GNB,NA,Gainsborough Central,53.399574,-0.769674
GBL,NA,Gainsborough Lea Road,53.386078,-0.768558
GAL,NA,Galashiels,55.610426,-2.809693
GCH,NA,Garelochhead,56.079449,-4.826544
GRF,NA,Garforth,53.796211,-1.382083
GGV,NA,Gargrave,53.97842,-2.105171
GAR,NA,Garrowhill,55.855286,-4.129497
GRS,NA,Garscadden,55.88784,-4.364757
GSD,NA,Garsdale,54.32135,-2.325891
GSN,NA,Garston (Hertfordshire),51.686685,-0.381689
GSW,NA,Garswood,53.488518,-2.672149
GRH,NA,Gartcosh,55.885,-4.078
GTH,NA,Garth,52.133816,-3.531142
GMG,NA,Garth (Mid Glamorgan),51.596413,-3.641504
GVE,NA,Garve,57.613129,-4.688429
GST,NA,Gathurst,53.559399,-2.694418
GTY,NA,Gatley,53.394001,-2.230052
GTW,LGW,Gatwick Airport,51.156425,-0.161022
GGJ,NA,Georgemas Junction,58.513721,-3.45212
GER,NA,Gerrards Cross,51.588883,-0.555367
GDP,NA,Gidea Park,51.581772,0.205411
GFN,NA,Giffnock,55.804688,-4.294289
GIG,NA,Giggleswick,54.061775,-2.302644
GBD,NA,Gilberdyke,53.747955,-0.732223
GFF,NA,Gilfach Fargoed,51.684208,-3.226604
GIL,NA,Gillingham (Dorset),51.033886,-2.272361
GLM,NA,Gillingham (Kent),51.386829,0.549618
GSC,NA,Gilshochill,55.897295,-4.28201
GIP,NA,Gipsy Hill,51.424984,-0.084096
GIR,NA,Girvan,55.246517,-4.848927
GLS,NA,Glaisdale,54.439796,-0.794221
GCW,NA,Glan Conwy,53.266644,-3.796892
81,NA,Glasgow,55.858,-4.259
GLC,NA,Glasgow Central,55.860157,-4.259208
GLQ,NA,Glasgow Queen Street,55.863003,-4.251385
GLH,NA,Glasshoughton,53.70884,-1.34247
GLZ,NA,Glazebrook,53.428076,-2.461152
GLE,NA,Gleneagles,56.274902,-3.7312
GLF,NA,Glenfinnan,56.872753,-5.449219
GLG,NA,Glengarnock,55.738579,-4.674364
GLT,NA,Glenrothes with Thornton,56.162224,-3.143189
GLO,NA,Glossop,53.444503,-1.949403
GCR,NA,Gloucester,51.864799,-2.238141
GLY,NA,Glynde,50.859398,0.06883
GOB,NA,Gobowen,52.893501,-3.036019
GOD,NA,Godalming,51.186115,-0.619175
GDL,NA,Godley,53.448151,-2.049649
GDN,NA,Godstone,51.217606,-0.051188
GOE,NA,Goldthorpe,53.533379,-1.313488
GOF,NA,Golf Street,56.497852,-2.719541
GOL,NA,Golspie,57.971092,-3.98806
GOM,NA,Gomshall,51.218964,-0.442065
GMY,NA,Goodmayes,51.565502,0.112277
GOO,NA,Goole,53.704426,-0.872907
GTR,NA,Goostrey,53.222634,-2.32628
GDH,NA,Gordon Hill,51.66346,-0.094289
GBG,NA,Gorebridge,55.836732,-3.046099
GOR,NA,Goring & Streatley,51.521428,-1.133051
GBS,NA,Goring-By-Sea,50.817753,-0.432751
GTO,NA,Gorton,53.468712,-2.167182
GPO,NA,Gospel Oak,51.555546,-0.150737
GRK,NA,Gourock,55.962788,-4.818021
GXX,NA,Gourock Pier,55.9628,-4.81475
GWN,NA,Gowerton,51.648701,-4.035124
GOX,NA,Goxhill,53.676613,-0.337699
GPK,NA,Grange Park,51.642811,-0.096599
GOS,NA,Grange-Over-Sands,54.195282,-2.902752
GTN,NA,Grangetown,51.466984,-3.189097
GRA,NA,Grantham,52.906448,-0.642438
GRT,NA,Grateley,51.170269,-1.619497
GVH,NA,Gravelly Hill,52.514969,-1.852612
GRV,NA,Gravesend,51.441029,0.36699
GRY,NA,Grays,51.476089,0.322719
GTA,NA,Great Ayton,54.4902,-1.113845
GRB,NA,Great Bentley,51.85207,1.065258
GRC,NA,Great Chesterford,52.060402,0.1939
GCT,NA,Great Coates,53.575542,-0.128701
GMV,NA,Great Malvern,52.109165,-2.318289
GMN,NA,Great Missenden,51.703304,-0.709132
GYM,NA,Great Yarmouth,52.612122,1.720949
GNL,NA,Green Lane,53.38271,-3.016281
GNR,NA,Green Road,54.244748,-3.245602
GBK,NA,Greenbank,53.251664,-2.533185
GRL,NA,Greenfaulds,55.932064,-3.999232
GNF,NA,Greenfield,53.538835,-2.014189
GFD,NA,Greenford,51.54235,-0.3463
GNH,NA,Greenhithe for Bluewater,51.450855,0.279694
GKC,NA,Greenock Central,55.945385,-4.752692
GKW,NA,Greenock West,55.94772,-4.768866
GNW,NA,Greenwich,51.477779,-0.014198
GEA,NA,Gretna Green,55.001934,-3.064608
GMD,NA,Grimsby Docks,53.574699,-0.075873
GMB,NA,Grimsby Town,53.564091,-0.086922
GRN,NA,Grindleford,53.30555,-1.62629
GMT,NA,Grosmont,54.436394,-0.724937
GRP,NA,Grove Park,51.430389,0.022597
GUI,NA,Guide Bridge,53.474171,-2.112961
GLD,NA,Guildford,51.236912,-0.580409
GSY,NA,Guiseley,53.875668,-1.715537
GUN,NA,Gunnersbury,51.491814,-0.275766
GSL,NA,Gunnislake,50.515992,-4.219437
GNT,NA,Gunton,52.866077,1.348821
GWE,NA,Gwersyllt,53.072559,-3.017913
GYP,NA,Gypsy Lane,54.532902,-1.179375
HAB,NA,Habrough,53.605507,-0.267936
HCB,NA,Hackbridge,51.378437,-0.15358
HKC,NA,Hackney Central,51.546825,-0.055896
HAC,NA,Hackney Downs,51.548695,-0.060144
HKW,NA,Hackney Wick,51.543625,-0.025759
HDM,NA,Haddenham & Thame Parkway,51.770788,-0.942121
HAD,NA,Haddiscoe,52.528835,1.622451
HDF,NA,Hadfield,53.460873,-1.965429
HDW,NA,Hadley Wood,51.668365,-0.176519
HGF,NA,Hag Fold,53.533442,-2.493744
HGG,NA,Haggerston,51.53912,-0.07642
HAG,NA,Hagley,52.422375,-2.147018
HMY,NA,Hairmyres,55.762012,-4.220047
HAL,NA,Hale,53.378669,-2.347383
HAS,NA,Halesworth,52.346157,1.506141
HED,NA,Halewood,53.364466,-2.830149
HFX,NA,Halifax,53.720417,-1.854486
HLG,NA,Hall Green,52.436745,-1.845513
HID,NA,Hall i' th' Wood,53.597546,-2.413986
HLR,NA,Hall Road,53.497442,-3.049607
HAI,NA,Halling,51.352169,0.445711
HWH,NA,Haltwhistle,54.967972,-2.462321
HMT,NA,Ham Street,51.067684,0.854653
HME,NA,Hamble,50.871311,-1.329173
HNC,NA,Hamilton Central,55.773239,-4.038928
HNW,NA,Hamilton West,55.779232,-4.056781
HMM,NA,Hammerton,53.996105,-1.283026
HMD,NA,Hampden Park,50.796124,0.278906
HDH,NA,Hampstead Heath,51.555779,-0.165159
HMP,NA,Hampton,51.41607,-0.37199
HMC,NA,Hampton Court,51.401947,-0.342412
HMW,NA,Hampton Wick,51.41412,-0.313201
HIA,NA,Hampton-In-Arden,52.428375,-1.699934
HSD,NA,Hamstead,52.530718,-1.92838
HAM,NA,Hamworthy,50.725754,-2.018381
HND,NA,Hanborough,51.825172,-1.373471
HTH,NA,Handforth,53.34639,-2.213263
HAN,NA,Hanwell,51.511604,-0.338432
HPN,NA,Hapton,53.781393,-2.318115
HRL,NA,Harlech,52.861309,-4.109248
HDN,NA,Harlesden,51.536518,-0.258214
HRD,NA,Harling Road,52.454128,0.908188
HLN,NA,Harlington,51.962012,-0.495715
HWM,NA,Harlow Mill,51.790878,0.131497
HWN,NA,Harlow Town,51.781639,0.094804
HRO,NA,Harold Wood,51.592907,0.234819
HPD,NA,Harpenden,51.814831,-0.351961
HRM,NA,Harrietsham,51.244652,0.673574
HGY,NA,Harringay,51.577305,-0.105115
HRY,NA,Harringay Green Lanes,51.577336,-0.098104
HRR,NA,Harrington,54.613551,-3.565573
HGT,NA,Harrogate,53.991959,-1.537814
HRW,NA,Harrow & Wealdstone,51.591576,-0.334067
HOH,NA,Harrow-on-the-Hill,51.57931,-0.336628
HTF,NA,Hartford,53.241721,-2.553978
HBY,NA,Hartlebury,52.335049,-2.22158
HPL,NA,Hartlepool,54.686771,-1.2073
HTW,NA,Hartwood,55.810532,-3.839792
HPQ,NA,Harwich International,51.947701,1.255167
HWC,NA,Harwich Town,51.944157,1.285469
HSL,NA,Haslemere,51.089237,-0.719162
HSK,NA,Hassocks,50.923264,-0.146043
HGS,NA,Hastings,50.858288,0.57608
HTE,NA,Hatch End,51.610054,-0.369499
HAT,NA,Hatfield,51.763397,-0.216162
HFS,NA,Hatfield & Stainforth,53.589532,-1.020931
HAP,NA,Hatfield Peverel,51.779785,0.593463
HSG,NA,Hathersage,53.325405,-1.651641
HTY,NA,Hattersley,53.445126,-2.040324
HTN,NA,Hatton,52.295242,-1.672982
HAV,NA,Havant,50.854416,-0.982763
HVN,NA,Havenhouse,53.114548,0.272619
HVF,NA,Haverfordwest,51.802601,-4.960279
HWD,NA,Hawarden,53.185703,-3.032561
HWB,NA,Hawarden Bridge,53.218971,-3.031866
HWK,NA,Hawick,55.425478,-2.7822
HKH,NA,Hawkhead,55.843136,-4.398792
HDB,NA,Haydon Bridge,54.974888,-2.246809
HYR,NA,Haydons Road,51.425755,-0.189073
HYS,NA,Hayes (Kent),51.375744,0.010123
HAY,NA,Hayes & Harlington,51.502973,-0.420785
HYL,NA,Hayle,50.186176,-5.419558
HYM,NA,Haymarket (Edinburgh),55.945854,-3.218458
HHE,NA,Haywards Heath,51.00536,-0.105717
HAZ,NA,Hazel Grove,53.377415,-2.122121
HCN,NA,Headcorn,51.165657,0.627507
HDY,NA,Headingley,53.817787,-1.59289
HDL,NA,Headstone Lane,51.60268,-0.356766
HDG,NA,Heald Green,53.369248,-2.236533
HLI,NA,Healing,53.581425,-0.160163
HHL,NA,Heath High Level,51.516518,-3.181737
HLL,NA,Heath Low Level,51.515606,-3.183163
193,LHR,Heathrow Airport,51.478443,-0.46134
HAF,LHR,Heathrow Terminal 4 Rail,51.458214,-0.445447
HWV,LHR,Heathrow Terminal 5 Rail,51.47,-0.48
HXX,LHR,Heathrow Terminals 1-2-3 Rail,51.471,-0.456
HTC,NA,Heaton Chapel,53.425556,-2.179046
HBD,NA,Hebden Bridge,53.737587,-2.009063
HEC,NA,Heckington,52.977463,-0.29316
HDE,NA,Hedge End,50.927773,-1.297056
HNF,NA,Hednesford,52.709922,-2.00199
HEI,NA,Heighington,54.596977,-1.582071
HLC,NA,Helensburgh Central,56.004261,-4.732803
HLU,NA,Helensburgh Upper,56.013268,-4.73184
HLD,NA,Hellifield,54.010972,-2.227961
HMS,NA,Helmsdale,58.117737,-3.660068
HSB,NA,Helsby,53.275784,-2.770786
HML,NA,Hemel Hempstead,51.742062,-0.490762
HEN,NA,Hendon,51.580057,-0.238652
HNG,NA,Hengoed,51.647362,-3.224162
HNL,NA,Henley-In-Arden,52.291,-1.784444
HOT,NA,Henley-On-Thames,51.534182,-0.900133
HEL,NA,Hensall,53.698357,-1.113905
HFD,NA,Hereford,52.060715,-2.708854
HNB,NA,Herne Bay,51.364059,1.118742
HNH,NA,Herne Hill,51.453148,-0.101624
HER,NA,Hersham,51.377419,-0.389271
HFE,NA,Hertford East,51.799793,-0.072591
HFN,NA,Hertford North,51.798328,-0.092961
HES,NA,Hessle,53.717567,-0.442169
HSW,NA,Heswall,53.32917,-3.073568
HEV,NA,Hever,51.180912,0.094648
HEW,NA,Heworth,54.951862,-1.554976
HEX,NA,Hexham,54.974201,-2.095266
HYD,NA,Heyford,51.91902,-1.299262
HHB,NA,Heysham Port,54.033284,-2.913179
HIB,NA,High Brooms,51.149609,0.277686
HST,NA,High Street,55.858719,-4.239953
HWY,NA,High Wycombe,51.629793,-0.745139
HGM,NA,Higham,51.426376,0.466931
HIP,NA,Highams Park,51.608837,1.83e-4
HIG,NA,Highbridge & Burnham,51.218098,-2.972192
HHY,NA,Highbury & Islington,51.54668,-0.10206
HTO,NA,Hightown,53.525272,-3.057407
HLB,NA,Hildenborough,51.214451,0.226465
HLF,NA,Hillfoot,55.920143,-4.32032
HLE,NA,Hillington East,55.854778,-4.354768
HLW,NA,Hillington West,55.85537,-4.370778
HIL,NA,Hillside,53.62217,-3.024673
HLS,NA,Hilsea,50.828075,-1.058592
HYW,NA,Hinchley Wood,51.374939,-0.340508
HNK,NA,Hinckley,52.534969,-1.371916
HIN,NA,Hindley,53.542053,-2.574909
HNA,NA,Hinton Admiral,50.752384,-1.713616
HIT,NA,Hitchin,51.952915,-0.262498
HGR,NA,Hither Green,51.452374,-9.06e-4
HOC,NA,Hockley,51.603825,0.659971
HBN,NA,Hollingbourne,51.265484,0.627465
HCH,NA,Holmes Chapel,53.199131,-2.351063
HLM,NA,Holmwood,51.180428,-0.321752
HOL,NA,Holton Heath,50.711346,-2.077863
HHD,NA,Holyhead,53.307674,-4.631062
HLY,NA,Holytown,55.812943,-3.973967
HMN,NA,Homerton,51.546535,-0.038601
HYB,NA,Honeybourne,52.101383,-1.834989
HON,NA,Honiton,50.797062,-3.186207
HOY,NA,Honley,53.608849,-1.780814
HPA,NA,Honor Oak Park,51.450428,-0.045607
HOK,NA,Hook,51.279587,-0.961933
HOO,NA,Hooton,53.296741,-2.976721
HPE,NA,Hope (Clwyd),53.117344,-3.03691
HOP,NA,Hope (Derbyshire),53.346283,-1.729587
HPT,NA,Hopton Heath,52.391964,-2.912536
HOR,NA,Horley,51.168137,-0.161994
HBP,NA,Hornbeam Park,53.980236,-1.527272
HRN,NA,Hornsey,51.586414,-0.111961
HRS,NA,Horsforth,53.847576,-1.630612
HRH,NA,Horsham,51.066174,-0.318753
HSY,NA,Horsley,51.279114,-0.434304
HIR,NA,Horton in Ribblesdale,54.149379,-2.302054
HWI,NA,Horwich Parkway,53.579948,-2.543712
HSC,NA,Hoscar,53.597366,-2.803828
HGN,NA,Hough Green,53.372378,-2.775056
HOU,NA,Hounslow,51.462471,-0.361808
HOV,NA,Hove,50.835514,-0.170824
HXM,NA,Hoveton & Wroxham,52.715084,1.408312
HWW,NA,How Wood,51.717697,-0.344594
HOW,NA,Howden,53.764526,-0.86068
HOZ,NA,Howwood,55.811,-4.56
HOX,NA,Hoxton,51.53193,-0.07672
HYK,NA,Hoylake,53.390202,-3.178861
HBB,NA,Hubberts Bridge,52.975594,-0.110044
HKN,NA,Hucknall,53.038265,-1.195793
HUD,NA,Huddersfield,53.648407,-1.785142
HUL,NA,Hull,53.744144,-0.345645
HUP,NA,Humphrey Park,53.452321,-2.327363
HCT,NA,Huncoat,53.772144,-2.345903
HGD,NA,Hungerford,51.415344,-1.511056
HUB,NA,Hunmanby,54.17429,-0.314737
HUN,NA,Huntingdon,52.328613,-0.192047
HNT,NA,Huntly,57.444401,-2.776354
HNX,NA,Hunts Cross,53.360644,-2.855716
HUR,NA,Hurst Green,51.244545,0.004397
HUT,NA,Hutton Cranswick,53.955669,-0.43331
HUY,NA,Huyton,53.409813,-2.842991
HYC,NA,Hyde Central,53.451682,-2.085149
HYT,NA,Hyde North,53.464306,-2.085829
HKM,NA,Hykeham,53.194546,-0.600412
HYN,NA,Hyndland,55.879803,-4.314715
HYH,NA,Hythe,51.885281,0.926539
IBM,NA,IBM,55.929253,-4.830003
IFI,NA,Ifield,51.115902,-0.215505
IFD,NA,Ilford,51.559078,0.068699
ILK,NA,Ilkley,53.925304,-1.821799
IMW,NA,Imperial Wharf,51.475134,-0.183026
INC,NA,Ince,53.538975,-2.611865
INE,NA,Ince & Elton,53.276736,-2.816234
INT,NA,Ingatestone,51.667301,0.384556
INS,NA,Insch,57.33749,-2.616279
IGD,NA,Invergordon,57.688587,-4.175563
ING,NA,Invergowrie,56.456795,-3.057897
INK,NA,Inverkeithing,56.034725,-3.39621
INP,NA,Inverkip,55.905781,-4.873089
INV,NA,Inverness,57.480194,-4.223199
INH,NA,Invershin,57.925362,-4.399288
INR,NA,Inverurie,57.286343,-2.373224
IPS,NA,Ipswich,52.050552,1.144481
IRL,NA,Irlam,53.434172,-2.432989
IRV,NA,Irvine,55.610916,-4.675196
ISL,NA,Isleworth,51.474709,-0.33689
ISP,NA,Islip,51.82571,-1.238185
IVR,NA,Iver,51.508342,-0.506659
IVY,NA,Ivybridge,50.393515,-3.904954
JCH,NA,James Cook University Hospital,54.5515,-1.2076
LVJ,NA,James Street,53.404748,-2.991993
JEQ,NA,Jewellery Quarter,52.489514,-1.913522
JOH,NA,Johnston,51.756714,-4.996407
JHN,NA,Johnstone,55.834759,-4.50369
JOR,NA,Jordanhill,55.882282,-4.326053
KSL,NA,Kearsley,53.54419,-2.375032
KSN,NA,Kearsney,51.149399,1.271566
KEI,NA,Keighley,53.86787,-1.90112
KEH,NA,Keith,57.550976,-2.954062
KEL,NA,Kelvedon,51.841202,0.701529
KVD,NA,Kelvindale,55.8933,-4.3106
KEM,NA,Kemble,51.67622,-2.023115
KMH,NA,Kempston Hardwick,52.092026,-0.505266
KMP,NA,Kempton Park,51.421757,-0.40929
KMS,NA,Kemsing,51.297684,0.247716
KML,NA,Kemsley,51.361996,0.733559
KEN,NA,Kendal,54.332108,-2.739667
KLY,NA,Kenley,51.324547,-0.101199
KNE,NA,Kennett,52.277523,0.490482
KNS,NA,Kennishead,55.813099,-4.325119
KNL,NA,Kensal Green,51.530602,-0.223847
KNR,NA,Kensal Rise,51.534157,-0.220811
KPA,NA,Kensington Olympia,51.497753,-0.210189
KTH,NA,Kent House,51.412659,-0.045786
KTN,NA,Kentish Town,51.550338000000004,-0.140446
KTW,NA,Kentish Town West,51.546501,-0.146778
KNT,NA,Kenton,51.581436,-0.317123
KBK,NA,Kents Bank,54.172967,-2.925351
KET,NA,Kettering,52.393177,-0.731724
KWB,NA,Kew Bridge,51.489311,-0.288827
KWG,NA,Kew Gardens,51.477558,-0.284949
KEY,NA,Keyham,50.389687,-4.179095
KYN,NA,Keynsham,51.417122,-2.49465
KDB,NA,Kidbrooke,51.462662,0.028331
KID,NA,Kidderminster,52.384457,-2.239458
KDG,NA,Kidsgrove,53.086555,-2.244828
KWL,NA,Kidwelly,51.734299,-4.317046
KBN,NA,Kilburn High Road,51.537312,-0.19186
KLD,NA,Kildale,54.477268,-1.067829
KIL,NA,Kildonan,58.171432,-3.869993
KGT,NA,Kilgetty,51.732071,-4.715219
KMK,NA,Kilmarnock,55.612835,-4.499048
KLM,NA,Kilmaurs,55.636425,-4.532331
KPT,NA,Kilpatrick,55.924755,-4.453454
KWN,NA,Kilwinning,55.655994,-4.710071
KBC,NA,Kinbrace,58.258408,-3.941063
KGM,NA,Kingham,51.902222,-1.629331
KGH,NA,Kinghorn,56.069389,-3.174161
KGL,NA,Kings Langley,51.70631,-0.438411
KLN,NA,Kings Lynn,52.754108,0.403475
KNN,NA,Kings Norton,52.413456,-1.933801
KGN,NA,Kings Nympton,50.935921,-3.905634
KGP,NA,Kings Park,55.819935,-4.247294
KGS,NA,Kings Sutton,52.020184,-1.280066
KGE,NA,Kingsknowe,55.919323,-3.265634
KNG,NA,Kingston,51.412155,-0.301768
KND,NA,Kingswood,51.294807,-0.211439
KIN,NA,Kingussie,57.07785,-4.052227
KIT,NA,Kintbury,51.40247,-1.445059
KBX,NA,Kirby Cross,51.840897,1.214045
KKS,NA,Kirk Sandall,53.56347,-1.075006
KIR,NA,Kirkby,53.486619,-2.902021
KKB,NA,Kirkby in Ashfield,53.099758,-1.253278
KSW,NA,Kirkby Stephen,54.455135,-2.368603
KBF,NA,Kirkby-In-Furness,54.232426,-3.187398
KDY,NA,Kirkcaldy,56.112579,-3.167445
KRK,NA,Kirkconnel,55.38834,-3.998533
KKD,NA,Kirkdale,53.440896,-2.981093
KKM,NA,Kirkham & Wesham,53.787373,-2.881834
KKH,NA,Kirkhill,55.814156,-4.168751
KKN,NA,Kirknewton,55.888744,-3.432526
KLF,NA,Kirkstall Forge,53.826,-1.62
KWD,NA,Kirkwood,55.85577,-4.048037
KTL,NA,Kirton Lindsey,53.484829,-0.593886
KIV,NA,Kiveton Bridge,53.340729,-1.265524
KVP,NA,Kiveton Park,53.336975,-1.240052
KNA,NA,Knaresborough,54.008755,-1.470482
KBW,NA,Knebworth,51.86636,-0.187406
KNI,NA,Knighton,52.345043,-3.042232
KCK,NA,Knockholt,51.34573,0.130865
KNO,NA,Knottingley,53.706528,-1.259172
KNU,NA,Knucklas,52.359833,-3.096907
KNF,NA,Knutsford,53.301956,-2.372101
KYL,NA,Kyle of Lochalsh,57.280567,-5.713067
LDY,NA,Ladybank,56.273834,-3.122284
LAD,NA,Ladywell,51.456291,-0.019445
LAI,NA,Laindon,51.567566,0.424063
LRG,NA,Lairg,58.001701,-4.401
LKE,NA,Lake,50.64814,-1.16686
LAK,NA,Lakenheath,52.447456,0.533911
LAM,NA,Lamphey,51.667145,-4.873332
LNK,NA,Lanark,55.673119,-3.772901
LAN,NA,Lancaster,54.048553,-2.807934
LAC,NA,Lancing,50.827015,-0.323103
LAW,NA,Landywood,52.657101,-2.020659
LGB,NA,Langbank,55.924725,-4.586326
LHO,NA,Langho,53.804934,-2.447934
LHL,NA,Langholm,55.006935,-2.99296
LNY,NA,Langley,51.508011,-0.541747
LGG,NA,Langley Green,52.494385,-2.005857
LGM,NA,Langley Mill,53.018236,-1.330982
LGS,NA,Langside,55.821175,-4.277696
LGW,NA,Langwathby,54.694744,-2.662457
LAG,NA,Langwith - Whaley Thorns,53.232885,-1.208882
LAP,NA,Lapford,50.857384,-3.811489
LPW,NA,Lapworth,52.341232,-1.72549
LBT,NA,Larbert,56.022751,-3.830604
LAR,NA,Largs,55.792637,-4.867942
LRH,NA,Larkhall,55.739258,-3.974445
LAU,NA,Laurencekirk,56.835945,-2.466345
LWH,NA,Lawrence Hill,51.458168,-2.564183
LAY,NA,Layton,53.835625,-3.030249
LZB,NA,Lazonby & Kirkoswald,54.750233,-2.702207
LEB,NA,Lea Bridge,51.5672,-0.00363
LEG,NA,Lea Green,53.42709,-2.72386
LEH,NA,Lea Hall,52.480709,-1.786457
LEA,NA,Leagrave,51.905304,-0.459139
LHM,NA,Lealholm,54.459885,-0.826027
LMS,NA,Leamington Spa,52.284893,-1.536723
LSW,NA,Leasowe,53.408035,-3.099624
LHD,NA,Leatherhead,51.298397,-0.333225
LED,NA,Ledbury,52.044991,-2.425728
LEE,NA,Lee,51.449432,0.013364
LDS,NA,Leeds,53.795158,-1.549089
LEI,NA,Leicester,52.631397,-1.125274
LIH,NA,Leigh (Kent),51.194057,0.211179
LES,NA,Leigh-on-Sea,51.541309,0.640454
LBZ,NA,Leighton Buzzard,51.916046,-0.676874
LEL,NA,Lelant,50.183887,-5.436207
LTS,NA,Lelant Saltings,50.17923,-5.441468
LEN,NA,Lenham,51.233986,0.707337
LNZ,NA,Lenzie,55.921364,-4.153932
LEO,NA,Leominster,52.225109,-2.730506
LET,NA,Letchworth Garden City,51.980305,-0.229403
LEU,NA,Leuchars,56.375427,-2.893734
LVM,NA,Levenshulme,53.444405,-2.192676
LWS,NA,Lewes,50.870281,0.012455
LEW,NA,Lewisham,51.466099,-0.014703
LEY,NA,Leyland,53.69886,-2.687101
LEM,NA,Leyton Midland Road,51.569393,-0.007313
LER,NA,Leytonstone High Road,51.563725,0.008304
LIC,NA,Lichfield City,52.680347,-1.825431
LTV,NA,Lichfield Trent Valley,52.6869,-1.800014
LID,NA,Lidlington,52.041385,-0.558972
LHS,NA,Limehouse,51.51239,-0.040071
LCN,NA,Lincoln Central,53.227089,-0.540922
LFD,NA,Lingfield,51.176392,-0.007151
LGD,NA,Lingwood,52.621872,1.489735
LIN,NA,Linlithgow,55.975689,-3.596
LIP,NA,Liphook,51.071213,-0.801027
LSK,NA,Liskeard,50.446711,-4.46753
LIS,NA,Liss,51.044254,-0.893023
LVT,NA,Lisvane & Thornhill,51.544357,-3.185344
LTK,NA,Little Kimble,51.752014,-0.809152
LTT,NA,Little Sutton,53.285537,-2.943134
LTL,NA,Littleborough,53.642988,-2.094698
LIT,NA,Littlehampton,50.810226,-0.546547
LVN,NA,Littlehaven,51.079514,-0.308276
LTP,NA,Littleport,52.462696,0.316905
LVC,NA,Liverpool Central,53.40525,-2.977841
LIV,NA,Liverpool Lime Street,53.407299,-2.977746
LPY,NA,Liverpool South Parkway,53.3577,-2.8897
LSN,NA,Livingston North,55.901736,-3.543357
LVG,NA,Livingston South,55.871712,-3.503823
LLA,NA,Llanaber,52.741375,-4.078263
LBR,NA,Llanbedr,52.820835,-4.110252
LLT,NA,Llanbister Road,52.336231,-3.2122830000000002
LNB,NA,Llanbradach,51.60321,-3.233085
LLN,NA,Llandaf,51.507942,-3.229076
LDN,NA,Llandanwg,52.835865,-4.124342
LLC,NA,Llandecwyn,52.920666,-4.057092
LLL,NA,Llandeilo,51.885117,-3.987662
LLV,NA,Llandovery,51.99509,-3.803163
LLO,NA,Llandrindod,52.242687,-3.37963
LLD,NA,Llandudno,53.320911,-3.827043
LLJ,NA,Llandudno Junction,53.283953,-3.809102
LLI,NA,Llandybie,51.820099,-4.003658
LLE,NA,Llanelli,51.673405,-4.162068
LLF,NA,Llanfairfechan,53.257278,-3.983256
LPG,NA,Llanfairpwll,53.22094,-4.209263
LLG,NA,Llangadog,51.940639,-3.892638
LLM,NA,Llangammarch,52.113724,-3.55528
LLH,NA,Llangennech,51.691093,-4.078988
LGO,NA,Llangynllo,52.350227,-3.161273
LLR,NA,Llanharan,51.53759,-3.4408
LTH,NA,Llanhilleth,51.700339,-3.137033
LLS,NA,Llanishen,51.533592,-3.182181
LWR,NA,Llanrwst,53.14401,-3.802844
LAS,NA,Llansamlet,51.660973,-3.892526
LWM,NA,Llantwit Major,51.40623,-3.47503
LNR,NA,Llanwrda,51.962551,-3.871719
LNW,NA,Llanwrtyd,52.104584,-3.632354
LLW,NA,Llwyngwril,52.66658,-4.088024
LLY,NA,Llwynypia,51.633957,-3.453557
LHA,NA,Loch Awe,56.402481,-5.040117
LHE,NA,Loch Eil Outward Bound,56.855343,-5.191638
LCL,NA,Lochailort,56.881035,-5.663456
LCS,NA,Locheilside,56.855473,-5.290086
LCG,NA,Lochgelly,56.13538,-3.312958
LCC,NA,Lochluichart,57.621277,-4.809628
LHW,NA,Lochwinnoch,55.786549,-4.617038
LOC,NA,Lockerbie,55.123085,-3.353242
LCK,NA,Lockwood,53.635849,-1.800335
182,NA,London,51.50469233,-0.078459978
BFR,NA,London Blackfriars,51.510735,-0.103554
LBG,NA,London Bridge,51.505035,-0.085058
CST,NA,London Cannon Street,51.510525,-0.090589
CHX,NA,London Charing Cross,51.508362,-0.123835
EUS,NA,London Euston,51.528313,-0.134545
FST,NA,London Fenchurch Street,51.511234,-0.079039
LOF,NA,London Fields,51.541454,-0.057574
KGX,NA,London Kings Cross,51.530827,-0.122907
LST,NA,London Liverpool Street,51.517551,-0.08021
MYB,NA,London Marylebone,51.52248,-0.163605
PAD,NA,London Paddington,51.516014,-0.176049
LRB,NA,London Road (Brighton),50.836773,-0.136696
LRD,NA,London Road (Guildford),51.24067,-0.56506
STP,NA,London St. Pancras International,51.531921,-0.126361
VIC,NA,London Victoria,51.4966,-0.1448
WAT,NA,London Waterloo,51.501865,-0.111126
WAE,NA,London Waterloo (East),51.504513,-0.10814
LBK,NA,Long Buckby,52.293964,-1.086469
LGE,NA,Long Eaton,52.885105,-1.288114
LPR,NA,Long Preston,54.017115,-2.254533
LGK,NA,Longbeck,54.592896,-1.028041
LOB,NA,Longbridge,52.396385,-1.980861
LNG,NA,Longcross,51.384556,-0.594536
LGF,NA,Longfield,51.396496,0.299994
LND,NA,Longniddry,55.976524,-2.889308
LPT,NA,Longport,53.041656,-2.21623
LGN,NA,Longton,52.990013,-2.137216
LOO,NA,Looe,50.359234,-4.456029
LOT,NA,Lostock,53.572969,-2.494276
LTG,NA,Lostock Gralam,53.267677,-2.465197
LOH,NA,Lostock Hall,53.724316,-2.687069
LOS,NA,Lostwithiel,50.40744,-4.665497
LBO,NA,Loughborough,52.779327,-1.194952
LGJ,NA,Loughborough Junction,51.46666,-0.102499
LOW,NA,Lowdham,53.007072,-0.998465
LSY,NA,Lower Sydenham,51.425056,-0.033746
LWT,NA,Lowestoft,52.473618,1.749009
LUD,NA,Ludlow,52.370853,-2.715275
LUT,NA,Luton,51.882233,-0.414881
LUA,LTN,Luton Airport,51.880918,-0.413341
LTN,NA,Luton Airport Parkway,51.871159,-0.393485
LUX,NA,Luxulyan,50.390244,-4.747551
LYD,NA,Lydney,51.714584,-2.531189
LYE,NA,Lye,52.459267,-2.116233
LYP,NA,Lymington Pier,50.758083,-1.529275
LYT,NA,Lymington Town,50.760818,-1.537753
LYC,NA,Lympstone Commando,50.661121,-3.438876
LYM,NA,Lympstone Village,50.648621,-3.431419
LTM,NA,Lytham,53.739101,-2.964206
MAC,NA,Macclesfield,53.259331,-2.121397
MCN,NA,Machynlleth,52.595844,-3.854311
MST,NA,Maesteg,51.610607,-3.655003
MEW,NA,Maesteg (Ewenny Road),51.605297,-3.649038
MAG,NA,Maghull,53.506464,-2.930828
MDN,NA,Maiden Newton,50.780128,-2.568749
MAI,NA,Maidenhead,51.518601,-0.722464
MDB,NA,Maidstone Barracks,51.277288,0.514148
MDE,NA,Maidstone East,51.277729,0.520618
MDW,NA,Maidstone West,51.270943,0.515975
MAL,NA,Malden Manor,51.384579,-0.261118
MLG,NA,Mallaig,57.005497,-5.8306
MLT,NA,Malton,54.13155,-0.798593
MVL,NA,Malvern Link,52.12534,-2.31987
115,NA,Manchester,53.483333,-2.25
MIA,MAN,Manchester Airport,53.361568,-2.268941
MCO,NA,Manchester Oxford Road,53.47398,-2.242531
MAN,NA,Manchester Piccadilly,53.476704,-2.228991
MUF,NA,Manchester United Football Club,53.463056,-2.291389
MCV,NA,Manchester Victoria,53.487465,-2.242607
MNE,NA,Manea,52.497692,0.178779
MNG,NA,Manningtree,51.948818,1.045653
MNP,NA,Manor Park,51.552296,0.045309
MNR,NA,Manor Road,53.394772,-3.171468
MRB,NA,Manorbier,51.660114,-4.7919
MAS,NA,Manors,54.972698,-1.606296
MFT,NA,Mansfield,53.142232,-1.198192
MSW,NA,Mansfield Woodhouse,53.1636,-1.201651
MCH,NA,March,52.560432,0.090409
MRN,NA,Marden,51.175785,0.49359
MAR,NA,Margate,51.384926,1.371737
MHR,NA,Market Harborough,52.480366,-0.908868
MKR,NA,Market Rasen,53.384441,-0.337075
MNC,NA,Markinch,56.200069,-3.131414
MKT,NA,Marks Tey,51.880695,0.782372
MLW,NA,Marlow,51.570995,-0.766452
MPL,NA,Marple,53.400763,-2.057168
MSN,NA,Marsden,53.602737,-1.93197
MSK,NA,Marske,54.587433,-1.018892
MGN,NA,Marston Green,52.467159,-1.755616
MTM,NA,Martin Mill,51.170593,1.348907
MAO,NA,Martins Heron,51.406689,-0.720386
MTO,NA,Marton,54.543808,-1.197708
MYH,NA,Maryhill,55.898026,-4.301396
MYL,NA,Maryland,51.545784,0.006075
MRY,NA,Maryport,54.711597,-3.494738
MAT,NA,Matlock,53.138126,-1.558988
MTB,NA,Matlock Bath,53.121941,-1.55766
MAU,NA,Mauldeth Road,53.432984,-2.209325
MAX,NA,Maxwell Park,55.837124,-4.289813
MAY,NA,Maybole,55.354485,-4.686269
MZH,NA,Maze Hill,51.482883,0.003311
MHS,NA,Meadowhall,53.417046,-1.411669
MEL,NA,Meldreth,52.090687,0.00853
MKM,NA,Melksham,51.379803,-2.14449
MLS,NA,Melrose,55.59753,-2.715786
MES,NA,Melton,52.103683,1.338085
MMO,NA,Melton Mowbray,52.760643,-0.885564
MEN,NA,Menheniot,50.426183,-4.40938
MNN,NA,Menston,53.891895,-1.735205
MEO,NA,Meols,53.399356,-3.15431
MEC,NA,Meols Cop,53.645519,-2.975696
MEP,NA,Meopham,51.386368,0.356977
MEY,NA,Merryton,55.749013,-3.978667
MHM,NA,Merstham,51.264164,-0.149555
MER,NA,Merthyr Tydfil,51.745476,-3.377458
MEV,NA,Merthyr Vale,51.686607,-3.336622
MGM,NA,Metheringham,53.138866,-0.391421
MCE,NA,Metrocentre,54.958492,-1.662656
MEX,NA,Mexborough,53.490986,-1.28855
MIC,NA,Micheldever,51.182034,-1.260283
MIK,NA,Micklefield,53.788715,-1.324507
MBR,NA,Middlesbrough,54.579086,-1.232596
MDL,NA,Middlewood,53.359142,-2.084111
MDG,NA,Midgham,51.395805,-1.177683
MLF,NA,Milford (Surrey),51.163849,-0.63701
MFH,NA,Milford Haven,51.715977,-5.041485
MLH,NA,Mill Hill (Lancashire),53.735433,-2.501433
MIL,NA,Mill Hill Broadway,51.612823,-0.249522
MLB,NA,Millbrook (Bedfordshire),52.053822,-0.532724
MBK,NA,Millbrook (Hants),50.911434,-1.433848
MIN,NA,Milliken Park,55.825157,-4.533405
MLM,NA,Millom,54.210831,-3.271108
MIH,NA,Mills Hill,53.551393,-2.171484
MLN,NA,Milngavie,55.94091,-4.315152
MKC,NA,Milton Keynes Central,52.034357,-0.77341
MFF,NA,Minffordd,52.926464,-4.085625
MSR,NA,Minster,51.329807,1.317431
MIR,NA,Mirfield,53.671577,-1.692696
MIS,NA,Mistley,51.943417,1.080205
MTC,NA,Mitcham Eastfields,51.407725,-0.154764
MIJ,NA,Mitcham Junction,51.392887,-0.157308
MOB,NA,Mobberley,53.329941,-2.333309
MON,NA,Monifieth,56.480167,-2.818249
MRS,NA,Monks Risborough,51.735134,-0.829882
MTP,NA,Montpelier,51.468205,-2.588525
MTS,NA,Montrose,56.71286,-2.47207
MRF,NA,Moorfields,53.408534,-2.989182
MOG,NA,Moorgate,51.5186,-0.09027
MSD,NA,Moorside,53.516354,-2.35146
MRP,NA,Moorthorpe,53.594452,-1.304952
MRR,NA,Morar,56.969788,-5.821991
MRD,NA,Morchard Road,50.831841,-3.776424
MDS,NA,Morden South,51.396248,-0.200299
MCM,NA,Morecambe,54.070322,-2.869379
MTN,NA,Moreton (Dorset),50.701057,-2.312914
MRT,NA,Moreton (Merseyside),53.407917,-3.113156
MIM,NA,Moreton-In-Marsh,51.992336,-1.7014
MFA,NA,Morfa Mawddach,52.7071,-4.032224
MLY,NA,Morley,53.75037,-1.592033
MPT,NA,Morpeth,55.162537,-1.682903
MOR,NA,Mortimer,51.371941,-1.035979
MTL,NA,Mortlake,51.468288,-0.266575
MSS,NA,Moses Gate,53.55604,-2.400931
MOS,NA,Moss Side,53.764431,-2.943548
MSL,NA,Mossley (Grtr Manchester),53.514963,-2.041263
MSH,NA,Mossley Hill,53.379025,-2.915464
MPK,NA,Mosspark,55.838947,-4.336232
MSO,NA,Moston,53.52264,-2.171925
MTH,NA,Motherwell,55.791927,-3.995234
MOT,NA,Motspur Park,51.395042,-0.23916
MTG,NA,Mottingham,51.439804,0.050353
DBG,NA,Mottisfont & Dunbridge,51.033987,-1.546942
MLD,NA,Mouldsworth,53.231976,-2.732546
MCB,NA,Moulsecoomb,50.844616,-0.12076
MFL,NA,Mount Florida,55.826859,-4.262067
MTV,NA,Mount Vernon,55.839882,-4.136638
MTA,NA,Mountain Ash,51.683422,-3.378478
MOO,NA,Muir of Ord,57.518017,-4.460981
MUI,NA,Muirend,55.810459,-4.273888
MUB,NA,Musselburgh,55.930225,-3.062719
MYT,NA,Mytholmroyd,53.729496,-1.981773
NFN,NA,Nafferton,54.011684,-0.386948
NLS,NA,Nailsea & Backwell,51.419357,-2.750661
NRN,NA,Nairn,57.580227,-3.873024
"NAN",NA,Nantwich,53.063533,-2.518868
"NAR",NA,Narberth,51.800156,-4.726567
NBR,NA,Narborough,52.571712,-1.20318
NVR,NA,Navigation Road,53.395412,-2.3435
NTH,NA,Neath,51.662315,-3.807267
NMT,NA,Needham Market,52.156437,1.051047
NEI,NA,Neilston,55.782364,-4.426945
NEL,NA,Nelson,53.834469,-2.214223
NES,NA,Neston,53.292419,-3.063769
NET,NA,Netherfield,52.960972,-1.078427
NRT,NA,Nethertown,54.456699,-3.566201
NTL,NA,Netley,50.874977,-1.341913
NBA,NA,New Barnet,51.648521,-0.172972
NBC,NA,New Beckenham,51.416988,-0.035525
NBN,NA,New Brighton,53.43726,-3.049191
NCE,NA,New Clee,53.574455,-0.060771
NWX,NA,New Cross,51.476299,-0.032984
NXG,NA,New Cross Gate,51.475544,-0.041655
NCK,NA,New Cumnock,55.402271,-4.182457
NEH,NA,New Eltham,51.437649,0.0704
NHL,NA,New Holland,53.702106,-0.360936
NHE,NA,New Hythe,51.312401,0.455075
NLN,NA,New Lane,53.611298,-2.86758
NEM,NA,New Malden,51.403393,-0.256084
NMC,NA,New Mills Central,53.364567,-2.007485
NMN,NA,New Mills Newtown,53.359169,-2.00898
NWM,NA,New Milton,50.755836,-1.658313
NPD,NA,New Pudsey,53.804573,-1.679581
NSG,NA,New Southgate,51.613876,-0.142586
NCT,NA,Newark Castle,53.079987,-0.813151
NNG,NA,Newark Northgate,53.082542,-0.799644
NBE,NA,Newbridge,51.665686,-3.142116
NBY,NA,Newbury,51.397599,-1.322608
ZNP,NA,Newbury Park,51.57582,0.08971
NRC,NA,Newbury Racecourse,51.39814,-1.308549
NCL,NA,Newcastle,54.968243,-1.617264
APN,NCL,Newcastle Airport,55.03588,-1.71209
NCZ,NA,Newcastle Central (Metro),54.96823,-1.61729
NCO,NA,Newcourt,50.705418,-3.47259
NEW,NA,Newcraighall,55.932619,-3.091582
121,NA,Newhaven,50.8,0.06
NVH,NA,Newhaven Harbour,50.790398,0.054433
NVN,NA,Newhaven Town,50.794888,0.054627
NGT,NA,Newington,51.353733,0.66269
NMK,NA,Newmarket,52.237904,0.406249
NWE,NA,Newport (Essex),51.97995,0.216176
NWP,NA,Newport Gwent,51.590145,-2.998873
NQY,NA,Newquay,50.415245,-5.075769
NSD,NA,Newstead,53.069961,-1.222036
NTN,NA,Newton,55.819256,-4.133907
NTA,NA,Newton Abbot,50.529507,-3.599957
"NAY",NA,Newton Aycliffe,54.613171,-1.5881
NWN,NA,Newton for Hyde,53.45623,-2.067735
NMM,NA,Newton Heath and Moston,53.50375,-2.1854
NTC,NA,Newton St Cyres,50.77879,-3.588594
NLW,NA,Newton-Le-Willows,53.452873,-2.614369
NOA,NA,Newton-On-Ayr,55.473541,-4.62632
NEG,NA,Newtongrange,55.865652,-3.066151
NWR,NA,Newtonmore,57.059673,-4.118831
NWT,NA,Newtown (Powys),52.512291,-3.311432
NNP,NA,Ninian Park,51.475861,-3.200846
NIT,NA,Nitshill,55.811531,-4.360126
NBT,NA,Norbiton,51.411907,-0.284525
NRB,NA,Norbury,51.411236,-0.123492
NSB,NA,Normans Bay,50.825382,0.389669
NOR,NA,Normanton,53.700249,-1.424378
NBW,NA,North Berwick,56.057545,-2.728989
NCM,NA,North Camp,51.275517,-0.731195
NDL,NA,North Dulwich,51.454712,-0.087163
NFA,NA,North Fambridge,51.64859,0.681703
NLR,NA,North Llanrwst,53.141348,-3.792723
NQU,NA,North Queensferry,56.013168,-3.395426
NRD,NA,North Road,54.536667,-1.554856
NSH,NA,North Sheen,51.464977,-0.285423
NWA,NA,North Walsham,52.817383,1.385142
NWB,NA,North Wembley,51.562355,-0.303394
NTR,NA,Northallerton,54.333084,-1.441718
NMP,NA,Northampton,52.237433,-0.906689
NFD,NA,Northfield,52.408073,-1.96469
NFL,NA,Northfleet - Cooper Arms,51.446384,0.324092
NLT,NA,Northolt Park,51.557762,-0.359827
NUM,NA,Northumberland Park,51.601643,-0.053558
NWI,NA,Northwich,53.261414,-2.496815
NTB,NA,Norton Bridge,52.865513,-2.190102
NRW,NA,Norwich,52.627121,1.306879
NWD,NA,Norwood Junction,51.396965,-0.075201
NOT,NA,Nottingham,52.946905,-1.146441
NUN,NA,Nuneaton,52.526436,-1.463431
NHD,NA,Nunhead,51.466747,-0.053546
NNT,NA,Nunthorpe,54.528347,-1.170195
NUT,NA,Nutbourne,50.846313,-0.883508
NUF,NA,Nutfield,51.22702,-0.132425
OKN,NA,Oakengates,52.693104,-2.451245
OKM,NA,Oakham,52.671913,-0.734019
OKL,NA,Oakleigh Park,51.637627,-0.166189
OBN,NA,Oban,56.411758,-5.473841
OCK,NA,Ockendon,51.521687,0.290439
OLY,NA,Ockley,51.150955,-0.335692
OKE,NA,Okehampton,50.731679,-3.988267
OHL,NA,Old Hill,52.470993,-2.055913
ORN,NA,Old Roan,53.486871,-2.951095
OLD,NA,Old Street,51.525776,-0.088515
OLF,NA,Oldfield Park,51.37978,-2.380742
OLT,NA,Olton,52.43848,-1.804313
ORE,NA,Ore,50.866959,0.590783
OMS,NA,Ormskirk,53.569014,-2.881615
ORP,NA,Orpington,51.373463,0.089049
ORR,NA,Orrell,53.530548,-2.709028
OPK,NA,Orrell Park,53.461991,-2.962908
OTF,NA,Otford,51.312141,0.196757
OUN,NA,Oulton Broad North,52.478226,1.716998
OUS,NA,Oulton Broad South,52.469528,1.707425
OUT,NA,Outwood,53.714115,-1.512068
OVE,NA,Overpool,53.284155,-2.924788
OVR,NA,Overton,51.253971,-1.25913
OXN,NA,Oxenholme Lake District,54.305169,-2.722249
OXF,NA,Oxford,51.753549,-1.270037
OXP,NA,Oxford Parkway,51.8042,-1.2745
OXS,NA,Oxshott,51.336578,-0.361993
OXT,NA,Oxted,51.257298,-0.005075
PDW,NA,Paddock Wood,51.182453,0.389485
PDG,NA,Padgate,53.405514,-2.556521
PGN,NA,Paignton,50.434658,-3.564361
PCN,NA,Paisley Canal,55.840878,-4.422606
PYG,NA,Paisley Gilmour Street,55.848026,-4.424646
PYJ,NA,Paisley St James,55.852165,-4.442486
PAL,NA,Palmers Green,51.618736,-0.109164
PAN,NA,Pangbourne,51.485231,-1.090522
PNL,NA,Pannal,53.958687,-1.533605
PTF,NA,Pantyffynnon,51.778835,-3.997481
PAR,NA,Par,50.355263,-4.704752
PBL,NA,Parbold,53.590856,-2.770679
PKT,NA,Park Street,51.725651,-0.340727
PKS,NA,Parkstone (Dorset),50.723049,-1.94897
PSN,NA,Parson Street,51.432758,-2.60991
PTK,NA,Partick,55.869987,-4.310921
PRN,NA,Parton,54.569795,-3.580867
PWY,NA,Patchway,51.52578,-2.562647
PAT,NA,Patricroft,53.484745,-2.357919
PTT,NA,Patterton,55.790443,-4.334935
PEA,NA,Peartree,52.89684,-1.473198
PMR,NA,Peckham Rye,51.470585,-0.067782
PEG,NA,Pegswood,55.178616,-1.64509
PEM,NA,Pemberton,53.530427,-2.670225
PBY,NA,Pembrey & Burry Port,51.683487,-4.247899
PMB,NA,Pembroke,51.673546,-4.905563
PMD,NA,Pembroke Dock,51.69434,-4.93729
PNY,NA,Pen-Y-Bont,52.273914,-3.321972
PNA,NA,Penally,51.65905,-4.72243
PEN,NA,Penarth,51.435669,-3.173908
PCD,NA,Pencoed,51.524567,-3.50053
PGM,NA,Pengam,51.670681,-3.230578
PNE,NA,Penge East,51.419125,-0.055566
PNW,NA,Penge West,51.417419,-0.061402
PHG,NA,Penhelig,52.545212,-4.035051
PNS,NA,Penistone,53.525757,-1.62134
PKG,NA,Penkridge,52.723611,-2.119447
PMW,NA,Penmaenmawr,53.270635,-3.923514
PNM,NA,Penmere,50.149736,-5.083108
PER,NA,Penrhiwceiber,51.671906,-3.363662
PRH,NA,Penrhyndeudraeth,52.928623,-4.064905
PNR,NA,Penrith,54.661831,-2.758044
PYN,NA,Penryn,50.170206,-5.110885
PES,NA,Pensarn,52.830692,-4.112216
PHR,NA,Penshurst,51.197449,0.174125
PTB,NA,Pentre-Bach,51.724976,-3.362362
PNC,NA,Penychain,52.903,-4.33845
PNF,NA,Penyffordd,53.143253,-3.055472
PNZ,NA,Penzance,50.12162,-5.532489
PRW,NA,Perranwell,50.216431,-5.111868
PRY,NA,Perry Barr,52.516361,-1.90196
PSH,NA,Pershore,52.130249,-2.071555
PTH,NA,Perth,56.39275,-3.440068
PBO,NA,Peterborough,52.574947,-0.24981
PTR,NA,Petersfield,51.006924,-0.940951
PET,NA,Petts Wood,51.388996,0.075393
PEV,NA,Pevensey & Westham,50.815899,0.325291
PEB,NA,Pevensey Bay,50.818249,0.342453
PEW,NA,Pewsey,51.342411,-1.771691
PIZ,NA,Pickering Eastgate,54.24349,-0.77435
PIL,NA,Pilning,51.556502,-2.627192
PIN,NA,Pinhoe,50.738079,-3.469582
PIT,NA,Pitlochry,56.70256,-3.736085
PSE,NA,Pitsea,51.560387,0.508806
PLS,NA,Pleasington,53.730961,-2.544142
PLK,NA,Plockton,57.333172,-5.666848
PLC,NA,Pluckley,51.156578,0.748571
PLM,NA,Plumley,53.274809,-2.419615
PMP,NA,Plumpton,50.929066,-0.060435
PLU,NA,Plumstead,51.48959,0.082828
PLY,NA,Plymouth,50.377762,-4.143386
POK,NA,Pokesdown,50.731022,-1.82568
PLG,NA,Polegate,50.820934,0.251705
PSW,NA,Polesworth,52.625893,-1.60995
PWE,NA,Pollokshaws East,55.824589,-4.287476
PWW,NA,Pollokshaws West,55.824318,-4.301826
PLE,NA,Pollokshields East,55.841103,-4.269287
PLW,NA,Pollokshields West,55.83736,-4.277043
PMT,NA,Polmont,55.984856,-3.716614
POL,NA,Polsloe Bridge,50.731274,-3.501785
PON,NA,Ponders End,51.642693,-0.034453
PYP,NA,Pont-Y-Pant,53.065033,-3.862462
PTD,NA,Pontarddulais,51.716866,-4.045417
PFR,NA,Pontefract Baghill,53.691517,-1.303355
PFM,NA,Pontefract Monkhill,53.698711,-1.304749
POT,NA,Pontefract Tanshelf,53.694313,-1.319964
PLT,NA,Pontlottyn,51.74659,-3.278995
PYC,NA,Pontyclun,51.524113,-3.390959
PPL,NA,Pontypool and New Inn,51.697926,-3.014277
PPD,NA,Pontypridd,51.599312,-3.342715
POO,NA,Poole,50.718559,-1.982964
POP,NA,Poppleton,53.976345,-1.147657
PTG,NA,Port Glasgow,55.9342,-4.689432
PSL,NA,Port Sunlight,53.349123,-2.998248
PTA,NA,Port Talbot Parkway,51.591671,-3.781362
PTC,NA,Portchester,50.848389,-1.126361
POR,NA,Porth,51.61203,-3.408079
PTM,NA,Porthmadog,52.930954,-4.136431
PLN,NA,Portlethen,57.060455,-2.128577
PLD,NA,Portslade,50.836044,-0.204898
PMS,NA,Portsmouth & Southsea,50.797756,-1.090417
PMA,NA,Portsmouth Arms,50.956768,-3.950633
PMH,NA,Portsmouth Harbour,50.796097,-1.108895
PPK,NA,Possilpark & Parkhouse,55.890717,-4.259381
PBR,NA,Potters Bar,51.697392,-0.192715
PFY,NA,Poulton-Le-Fylde,53.848128,-2.990212
PYT,NA,Poynton,53.350398,-2.13448
PRS,NA,Prees,52.89962,-2.689765
PSC,NA,Prescot,53.423535,-2.799022
PRT,NA,Prestatyn,53.336491,-3.407164
PRB,NA,Prestbury,53.293465,-2.14549
PRE,NA,Preston,53.755721,-2.707191
PRP,NA,Preston Park,50.846054,-0.154787
PST,NA,Prestonpans,55.953426,-2.973665
PRA,PIK,Prestwick International Airport,55.511513,-4.616166
PTW,NA,Prestwick Town,55.501675,-4.613935
PTL,NA,Priesthill & Darnley,55.812737,-4.344246
PRR,NA,Princes Risborough,51.717697,-0.844059
PRL,NA,Prittlewell,51.550476,0.71167
PRU,NA,Prudhoe,54.966072,-1.864077
PUL,NA,Pulborough,50.957355,-0.517751
PFL,NA,Purfleet,51.481358,0.236575
PUR,NA,Purley,51.337334,-0.113592
PUO,NA,Purley Oaks,51.346989,-0.098843
PUT,NA,Putney,51.46125,-0.216463
PWL,NA,Pwllheli,52.887825,-4.416754
PYE,NA,Pye Corner,51.579513,-3.038295
PYL,NA,Pyle,51.527199,-3.702439
QYD,NA,Quakers Yard,51.660686,-3.322844
QBR,NA,Queenborough,51.416473,0.749756
QPK,NA,Queens Park (Glasgow),55.835747,-4.267368
QPW,NA,Queens Park (London),51.533916,-0.204966
QRP,NA,Queens Road Peckham,51.47401,-0.057553
QRB,NA,Queenstown Road (Battersea),51.474552,-0.146819
QUI,NA,Quintrell Downs,50.403908,-5.029838
RDF,NA,Radcliffe (Notts),52.948906,-1.031059
RDT,NA,Radlett,51.68486,-0.317626
RAD,NA,Radley,51.685588,-1.240398
RDR,NA,Radyr,51.515831,-3.248028
RNF,NA,Rainford,53.51694,-2.789454
RNM,NA,Rainham (Essex),51.517449,0.190716
RAI,NA,Rainham (Kent),51.36657,0.611698
RNH,NA,Rainhill,53.417129,-2.766398
RAM,NA,Ramsgate,51.340767,1.405833
RGW,NA,Ramsgreave & Wilpshire,53.787868,-2.47657
RAN,NA,Rannoch,56.685318,-4.576208
RAU,NA,Rauceby,52.985081,-0.455247
RAV,NA,Ravenglass for Eskdale,54.355804,-3.409456
RVB,NA,Ravensbourne,51.413803,-0.0069
RVN,NA,Ravensthorpe,53.675964,-1.653298
RWC,NA,Rawcliffe,53.688141,-0.961174
RLG,NA,Rayleigh,51.589851,0.601393
RAY,NA,Raynes Park,51.409294,-0.22998
RDG,NA,Reading,51.458767,-0.972172
RDW,NA,Reading West,51.455077,-0.990143
REC,NA,Rectory Road,51.55872,-0.068379
RDB,NA,Redbridge,50.919697,-1.470737
RCC,NA,Redcar Central,54.615692,-1.069318
RCE,NA,Redcar East,54.609257,-1.05088
RDN,NA,Reddish North,53.448956,-2.15656
RDS,NA,Reddish South,53.435873,-2.159028
RDC,NA,Redditch,52.306337,-1.945248
RDH,NA,Redhill,51.240124,-0.164851
RDA,NA,Redland,51.468792,-2.598875
RED,NA,Redruth,50.233111,-5.225877
RHM,NA,Reedham (London),51.332108,-0.123854
REE,NA,Reedham (Norfolk),52.564045,1.558941
REI,NA,Reigate,51.241623,-0.203474
RTN,NA,Renton,55.970566,-4.586181
RET,NA,Retford,53.315872,-0.94772
RHI,NA,Rhiwbina,51.520687,-3.213561
RIA,CWL,Rhoose Cardiff Airport,51.387454,-3.347599
RHO,NA,Rhosneigr,53.234782,-4.505768
RHL,NA,Rhyl,53.318409,-3.489144
RHY,NA,Rhymney,51.759064,-3.289494
RHD,NA,Ribblehead,54.205776,-2.36087
RIL,NA,Rice Lane,53.457738,-2.962253
RMD,NA,Richmond,51.462505,-0.301346
RIC,NA,Rickmansworth,51.640447,-0.473013
RDD,NA,Riddlesdown,51.332611,-0.099436
RID,NA,Ridgmont,52.026588,-0.594903
RDM,NA,Riding Mill,54.949066,-1.97186
RCA,NA,Risca & Pontymister,51.60443,-3.093533
RIS,NA,Rishton,53.763813,-2.420165
RBR,NA,Robertsbridge,50.984726,0.469092
ROB,NA,Roby,53.410034,-2.855956
RCD,NA,Rochdale,53.610293,-2.153444
ROC,NA,Roche,50.418911,-4.830658
RTR,NA,Rochester,51.384968,0.510698
RFD,NA,Rochford,51.581276,0.701959
RFY,NA,Rock Ferry,53.372269,-3.010898
ROG,NA,Rogart,57.988979,-4.158224
ROR,NA,Rogerstone,51.593413,-3.065478
ROL,NA,Rolleston,53.065536,-0.900095
RMB,NA,Roman Bridge,53.044319,-3.92125
RMF,NA,Romford,51.575016,0.181986
RML,NA,Romiley,53.414026,-2.089307
ROM,NA,Romsey,50.992641,-1.492716
ROO,NA,Roose,54.115157,-3.19457
RSG,NA,Rose Grove,53.786686,-2.282282
RSH,NA,Rose Hill Marple,53.396176,-2.076502
ROS,NA,Rosyth,56.046055,-3.427114
RMC,NA,Rotherham Central,53.429356,-1.358811
ROE,NA,Rotherhithe,51.50098,-0.05353
RNR,NA,Roughton Road,52.917828,1.299239
RLN,NA,Rowlands Castle,50.892864,-0.957748
ROW,NA,Rowley Regis,52.477299,-2.030885
RYB,NA,Roy Bridge,56.888184,-4.83645
RYN,NA,Roydon,51.775494,0.035088
RYS,NA,Royston,52.053509,-0.026686
RUA,NA,Ruabon,52.986935,-3.044214
RUF,NA,Rufford,53.634817,-2.806792
RUG,NA,Rugby,52.378719,-1.249263
RGT,NA,Rugeley Town,52.754672,-1.936963
RGL,NA,Rugeley Trent Valley,52.769451,-1.930309
RUN,NA,Runcorn,53.338696,-2.73919
RUE,NA,Runcorn East,53.326929,-2.665102
RKT,NA,Ruskington,53.041615,-0.380127
RUS,NA,Ruswarp,54.470367,-0.626664
RUT,NA,Rutherglen,55.830448,-4.212766
RYD,NA,Ryde Esplanade,50.733517,-1.159676
RYP,NA,Ryde Pier Head,50.738914,-1.159578
RYR,NA,Ryde St Johns Road,50.72361,-1.157028
RRB,NA,Ryder Brow,53.457916,-2.176173
RYE,NA,Rye,50.951916,0.730782
RYH,NA,Rye House,51.76881,0.005796
SFD,NA,Salford Central,53.482913,-2.254686
SLD,NA,Salford Crescent,53.486462,-2.275715
SAF,NA,Salfords,51.201412,-0.162096
SAH,NA,Salhouse,52.675083,1.391886
SAL,NA,Salisbury,51.070915,-1.805864
SAE,NA,Saltaire,53.838066,-1.790246
STS,NA,Saltash,50.407108,-4.209449
SLB,NA,Saltburn,54.583462,-0.974116
SLT,NA,Saltcoats,55.633648,-4.784804
SAM,NA,Saltmarshe,53.722675,-0.808765
SLW,NA,Salwick,53.781536,-2.817973
SMC,NA,Sampford Courtenay,50.77896,-3.93751
SNA,NA,Sandal & Agbrigg,53.664574,-1.485404
SDB,NA,Sandbach,53.150113,-2.393528
SNR,NA,Sanderstead,51.348694,-0.093017
SDL,NA,Sandhills,53.430021000000004,-2.9915
SND,NA,Sandhurst,51.34642,-0.803911
SDG,NA,Sandling,51.09021,1.065995
SAN,NA,Sandown,50.657101,-1.162457
SDP,NA,Sandplace,50.386684,-4.464549
SAD,NA,Sandwell & Dudley,52.508431,-2.011281
SDW,NA,Sandwich,51.269711,1.343208
SDY,NA,Sandy,52.124931,-0.28065
SNK,NA,Sankey for Penketh,53.392452,-2.651094
SQH,NA,Sanquhar,55.370633,-3.923437
SRR,NA,Sarn,51.540049,-3.589196
SDF,NA,Saundersfoot,51.722084,-4.718965
SDR,NA,Saunderton,51.675751,-0.825626
SAW,NA,Sawbridgeworth,51.814625,0.16017700000000001
SXY,NA,Saxilby,53.267193,-0.664018
SAX,NA,Saxmundham,52.215309,1.489965
SCA,NA,Scarborough,54.2798,-0.405666
SCT,NA,Scotscalder,58.482891,-3.553764
SCH,NA,Scotstounhill,55.884491,-4.351765
SCU,NA,Scunthorpe,53.58617,-0.650951
SML,NA,Sea Mills,51.480209,-2.649427
SEB,NA,Seaburn,54.929558,-1.38667
SEF,NA,Seaford,50.772495,0.10045
SFL,NA,Seaforth & Litherland,53.466336,-3.005619
SEA,NA,Seaham,54.836835,-1.341019
SEM,NA,Seamer,54.241287,-0.416367
SSC,NA,Seascale,54.395351,-3.48476
SEC,NA,Seaton Carew,54.657959,-1.200106
SRG,NA,Seer Green & Jordans,51.609524,-0.607809
SBY,NA,Selby,53.78336,-1.06355
SRS,NA,Selhurst,51.392704,-0.089759
SKK,NA,Selkirk,55.516089,-2.806171
SEL,NA,Sellafield,54.416571,-3.510293
SEG,NA,Selling,51.277817,0.940801
SLY,NA,Selly Oak,52.441322,-1.936708
SET,NA,Settle,54.066897,-2.280704
SVK,NA,Seven Kings,51.563992,0.096325
SVS,NA,Seven Sisters,51.584007,-0.074521
SEV,NA,Sevenoaks,51.27734,0.182193
SVB,NA,Severn Beach,51.559864,-2.664227
STJ,NA,Severn Tunnel Junction,51.584629,-2.777917
SDE,NA,Shadwell,51.51093,-0.05743
SFR,NA,Shalford,51.214264,-0.566789
SHN,NA,Shanklin,50.633842,-1.179841
SFI,NA,Shawfair,55.91993,-3.07872
SHW,NA,Shawford,51.021488,-1.328428
SHL,NA,Shawlands,55.828987,-4.292521
SSS,NA,Sheerness-On-Sea,51.440559,0.758397
SHF,NA,Sheffield,53.378639,-1.463297
SED,NA,Shelford,52.149517,0.139805
SNF,NA,Shenfield,51.630615,0.330602
SEN,NA,Shenstone,52.638985,-1.844528
SPB,NA,Shepherds Bush,51.506,-0.218
SPH,NA,Shepherds Well,51.188339,1.229952
SPY,NA,Shepley,53.588913,-1.703863
SHP,NA,Shepperton,51.397091,-0.447521
STH,NA,Shepreth,52.114567,0.031517
SHE,NA,Sherborne,50.94405,-2.513816
SIE,NA,Sherburn-In-Elmet,53.797142,-1.23176
SHM,NA,Sheringham,52.94096,1.210195
SLS,NA,Shettleston,55.852959,-4.159731
SDM,NA,Shieldmuir,55.775532,-3.952944
SFN,NA,Shifnal,52.666405,-2.371116
SHD,NA,Shildon,54.626816,-1.637515
SHI,NA,Shiplake,51.51121,-0.882452
SHY,NA,Shipley,53.833553,-1.773558
SPP,NA,Shippea Hill,52.430218000000004,0.412299
SIP,NA,Shipton,51.866131,-1.591864
SHB,NA,Shirebrook,53.20369,-1.201995
SHH,NA,Shirehampton,51.484216,-2.679162
SRO,NA,Shireoaks,53.32481,-1.16821
SRL,NA,Shirley,52.403473,-1.845632
SRY,NA,Shoeburyness,51.531414,0.795616
SHO,NA,Sholing,50.896687,-1.36436
SDC,NA,Shoreditch High Street,51.523433,-0.075614
SEH,NA,Shoreham (Kent),51.332092,0.187665
SSE,ESH,Shoreham-By-Sea,50.834358,-0.271709
SRT,NA,Shortlands,51.405548,0.002798
SHT,NA,Shotton,53.21352,-3.037728
SHS,NA,Shotts,55.818302,-3.80024
SHR,NA,Shrewsbury,52.711369,-2.74897
SID,NA,Sidcup,51.434361,0.103342
SIL,NA,Sileby,52.731595,-1.109979
SIC,NA,Silecroft,54.225966,-3.334281
SLK,NA,Silkstone Common,53.537239,-1.560883
SLV,NA,Silver Street,51.615364,-0.067415
SVR,NA,Silverdale,54.169922,-2.804164
SIN,NA,Singer,55.907711,-4.405983
SIT,NA,Sittingbourne,51.342201,0.733817
SKG,NA,Skegness,53.143032,0.333926
SKE,NA,Skewen,51.660789,-3.847692
SKI,NA,Skipton,53.958691,-2.025878
SGR,NA,Slade Green,51.466957,0.189792
SWT,NA,Slaithwaite,53.624275,-1.87901
SLA,NA,Slateford,55.926731,-3.243476
SLR,NA,Sleaford,52.995274,-0.410174
SLH,NA,Sleights,54.46088,-0.66246
SLO,NA,Slough,51.511921,-0.591803
SMA,NA,Small Heath,52.46283,-1.858673
SAB,NA,Smallbrook Junction,50.712822,-1.15721
SGB,NA,Smethwick Galton Bridge,52.501826,-1.980632
SMR,NA,Smethwick Rolfe Street,52.49632,-1.969885
SMB,NA,Smithy Bridge,53.633266,-2.113394
SNI,NA,Snaith,53.693192,-1.027678
SDA,NA,Snodland,51.330521,0.448864
SWO,NA,Snowdown,51.214886,1.213187
SOR,NA,Sole Street,51.38327,0.376939
SOL,NA,Solihull,52.415081,-1.78972
SYT,NA,Somerleyton,52.509892,1.653333
SAT,NA,South Acton,51.499813,-0.269697
SBK,NA,South Bank,54.582375,-1.186112
SBM,NA,South Bermondsey,51.487446,-0.054101
SCY,NA,South Croydon,51.362194,-0.093903
SES,NA,South Elmsall,53.595234,-1.285286
SGN,NA,South Greenford,51.533339,-0.336403
SGL,NA,South Gyle,55.936951,-3.298234
SOH,NA,South Hampstead,51.541424,-0.178759
SOK,NA,South Kenton,51.56963,-0.308894
SMO,NA,South Merton,51.40353,-0.205764
SOM,NA,South Milford,53.781994,-1.251772
SRU,NA,South Ruislip,51.556742,-0.398812
STO,NA,South Tottenham,51.58036,-0.071788
SWS,NA,South Wigston,52.582451,-1.132918
SOF,NA,South Woodham Ferrers,51.64957,0.606512
STL,NA,Southall,51.505884,-0.378513
SOA,SOU,Southampton Airport Parkway,50.950638,-1.36362
SOU,NA,Southampton Central,50.907742,-1.413983
STQ,NA,Southampton Town Quay,50.895035,-1.405778
SOB,NA,Southbourne,50.848343,-0.907601
SBU,NA,Southbury,51.648396,-0.052998
SEE,NA,Southease,50.831284,0.03066
SIA,SEN,Southend Airport,51.5687,0.704084
SOC,NA,Southend Central,51.536972,0.712305
SOE,NA,Southend East,51.539234,0.731196
SOV,NA,Southend Victoria,51.542389,0.711184
SMN,NA,Southminster,51.660873,0.835397
SOP,NA,Southport,53.646597,-3.002229
SWK,NA,Southwick,50.832928,-0.236254
SOW,NA,Sowerby Bridge,53.707886,-1.90756
SPA,NA,Spalding,52.788418,-0.156722
SBR,NA,Spean Bridge,56.889839,-4.920321
SPI,NA,Spital,53.339869,-2.993903
SPO,NA,Spondon,52.912267,-1.410627
SPN,NA,Spooner Row,52.535057,1.086088
SRI,NA,Spring Road,52.44392,-1.83666
SPR,NA,Springburn,55.881363,-4.230064
SPF,NA,Springfield,56.295116,-3.051808
SQU,NA,Squires Gate,53.776756,-3.049403
SAC,NA,St Albans,51.748829,-0.326842
SAA,NA,St Albans Abbey,51.744675,-0.342422
SAR,NA,St Andrews Road (Bristol),51.513214,-2.696009
SAS,NA,St Annes-On-The-Sea,53.753383,-3.029662
SAU,NA,St Austell,50.338863,-4.789557
SBS,NA,St Bees,54.492465,-3.591263
SBF,NA,St Budeaux Ferry Road,50.401241,-4.186661
SBV,NA,St Budeaux Victoria Road,50.403008,-4.188144
SCR,NA,St Columb Road,50.399002,-4.94085
SDN,NA,St Denys,50.921997,-1.3882
SER,NA,St Erth,50.171074,-5.443694
SGM,NA,St Germans,50.394386,-4.308757
SNH,NA,St Helens Central,53.453117,-2.730328
SHJ,NA,St Helens Junction,53.433525,-2.699892
SIH,NA,St Helier,51.389935,-0.199115
SIV,NA,St Ives,50.208759,-5.477247
SJS,NA,St James Street,51.580612,-0.032804
SJP,NA,St James' Park,50.731094,-3.523202
SAJ,NA,St Johns,51.468937,-0.023225
SKN,NA,St Keyne,50.422714,-4.462204
SLQ,NA,St Leonards Warrior Square,50.855942,0.560326
SMG,NA,St Margarets,51.454689,-0.320352
SMT,NA,St Margarets (Herts),51.787773,8.37e-4
SMY,NA,St Mary Cray,51.394714,0.107269
STM,NA,St Michaels,53.375649,-2.952704
SNO,NA,St Neots,52.231438,-0.247244
STZ,NA,St Peters,54.91066,-1.38387
STI,NA,Stadium of Light,54.917837,-1.383751
STA,NA,Stafford,52.804466,-2.123088
SNS,NA,Staines,51.432873,-0.502415
SLL,NA,Stallingborough,53.587158,-0.182581
SYB,NA,Stalybridge,53.484471,-2.06264
SMD,NA,Stamford,52.647358,-0.480474
SMH,NA,Stamford Hill,51.575035,-0.076343
SFO,NA,Stanford-Le-Hope,51.513634,0.422634
SNT,NA,Stanlow & Thornton,53.277996,-2.841318
SSD,STN,Stansted Airport,51.888979,0.26162
SST,NA,Stansted Mountfitchet,51.901495,0.19964199999999999
SPU,NA,Staplehurst,51.171856,0.55061
SRD,NA,Stapleton Road,51.468052,-2.565747
SBE,NA,Starbeck,53.999004,-1.501116
SCS,NA,Starcross,50.627731,-3.447757
SVL,NA,Staveley,54.375629000000004,-2.818961
SCF,NA,Stechford,52.485241,-1.810006
SON,NA,Steeton & Silsden,53.900257,-1.946704
SPS,NA,Stepps,55.890026,-4.147389
SVG,NA,Stevenage,51.899025,-0.206437
STV,NA,Stevenston,55.633533,-4.749829
SWR,NA,Stewartby,52.06974,-0.520596
STT,NA,Stewarton,55.681633,-4.519346
STG,NA,Stirling,56.119114,-3.934915
SPT,NA,Stockport,53.4049,-2.162419
SKS,NA,Stocksfield,54.94635,-1.917227
SSM,NA,Stocksmoor,53.594349,-1.723478
STK,NA,Stockton,54.56971,-1.31784
SKM,NA,Stoke Mandeville,51.78772,-0.783575
SKW,NA,Stoke Newington,51.565079,-0.07244
SOT,NA,Stoke-On-Trent,53.008012,-2.181119
SNE,NA,Stone,52.90832,-2.154951
SCG,NA,Stone Crossing,51.452053,0.263924
SBP,NA,Stonebridge Park,51.543961,-0.275233
SOG,NA,Stonegate,51.020184,0.364016
STN,NA,Stonehaven,56.966888,-2.225286
SHU,NA,Stonehouse,51.746029,-2.279516
SNL,NA,Stoneleigh,51.363701,-0.247546
SBJ,NA,Stourbridge Junction,52.447563,-2.133857
SBT,NA,Stourbridge Town,52.456539,-2.142716
SOI,NA,Stow,55.691398,-2.857782
SMK,NA,Stowmarket,52.190105,1.000662
STR,NA,Stranraer,54.909626,-5.024806
SRA,NA,Stratford (London),51.542358,-0.004175
SFA,NA,Stratford International,51.544306,-0.009882
SAV,NA,Stratford-upon-Avon,52.19376,-1.716148
STY,NA,Stratford-upon-Avon Parkway,52.20642,-1.7307
STC,NA,Strathcarron,57.422585,-5.429166
STW,NA,Strawberry Hill,51.439682,-0.339597
STE,NA,Streatham,51.425755,-0.131535
SRC,NA,Streatham Common,51.418629,-0.136136
SRH,NA,Streatham Hill,51.43829,-0.128136
SHC,NA,Streethouse,53.676158,-1.399346
SRN,NA,Strines,53.374932,-2.033544
STF,NA,Stromeferry,57.352688,-5.550702
SOO,NA,Strood,51.396,0.4998
STD,NA,Stroud,51.744358,-2.218673
STU,NA,Sturry,51.301018,1.121644
SYA,NA,Styal,53.348137,-2.240313
SUD,NA,Sudbury & Harrow Road,51.554459,-0.316676
SDH,NA,Sudbury Hill Harrow,51.558423,-0.336092
SUY,NA,Sudbury Suffolk,52.035591,0.735111
SUG,NA,Sugar Loaf,52.082237,-3.686991
SUM,NA,Summerston,55.89835,-4.283814
SUU,NA,Sunbury,51.418262,-0.416611
SUN,NA,Sunderland,54.90617,-1.382357
SUP,NA,Sundridge Park,51.413338,0.020402
SNG,NA,Sunningdale,51.391312,-0.633135
SNY,NA,Sunnymeads,51.470451,-0.558781
SUR,NA,Surbiton,51.392406,-0.303942
SQE,NA,Surrey Quays,51.49279,0.048114
SUO,NA,Sutton (Surrey),51.360126,-0.190223
SUT,NA,Sutton Coldfield,52.565269,-1.824404
SUC,NA,Sutton Common,51.375519,-0.196799
SPK,NA,Sutton Parkway,53.122108,-1.236385
SWL,NA,Swale,51.390434,0.748194
SAY,NA,Swanley,51.392727,0.16755
SWM,NA,Swanscombe- George & Dragon,51.449356,0.309854
SWA,NA,Swansea,51.625103,-3.941598
SNW,NA,Swanwick,50.875427,-1.265151
SWY,NA,Sway,50.784454,-1.609864
SWG,NA,Swaythling,50.941719,-1.376552
SWD,NA,Swinderby,53.168732,-0.702985
SWI,NA,Swindon,51.565437,-1.786448
SWE,NA,Swineshead,52.969593,-0.186255
SNN,NA,Swinton (Manchester),53.514822,-2.337384
SWN,NA,Swinton (South Yorkshire),53.487484,-1.305195
SYD,NA,Sydenham,51.427208,-0.055232
SYH,NA,Sydenham Hill,51.433002,-0.079444
SYL,NA,Syon Lane,51.481735,-0.325116
SYS,NA,Syston,52.693111,-1.082611
TAC,NA,Tackley,51.88118,-1.297202
TAD,NA,Tadworth,51.29158,-0.235953
TAF,NA,Taffs Well,51.540848,-3.263129
TAI,NA,Tain,57.814651,-4.051826
TLC,NA,Tal-Y-Cafn,53.228443,-3.818606
TAL,NA,Talsarnau,52.904289,-4.068213
TLB,NA,Talybont,52.772507,-4.097534
TAB,NA,Tame Bridge Parkway,52.551022,-1.974899
TAM,NA,Tamworth,52.63737,-1.687083
TYB,NA,Tan-Y-Bwlch,52.994685,-3.937079
TAP,NA,Taplow,51.523528,-0.681474
TAT,NA,Tattenham Corner,51.308765,-0.242456
TAU,NA,Taunton,51.023613,-3.102146
TAY,NA,Taynuilt,56.430714,-5.23868
TED,NA,Teddington,51.424294,-0.332965
TEA,MME,Teesside Airport,54.518147,-1.425305
TGM,NA,Teignmouth,50.547993,-3.494712
TFC,NA,Telford Central,52.678764,-2.440744
TMC,NA,Templecombe,51.001083,-2.417532
TEN,NA,Tenby,51.672897,-4.707348
TEY,NA,Teynham,51.333248,0.807944
THD,NA,Thames Ditton,51.388424,-0.340027
THA,NA,Thatcham,51.39384,-1.243048
THH,NA,Thatto Heath,53.436585,-2.759419
THW,NA,The Hawthorns,52.505165,-1.96313
TLK,NA,The Lakes,52.359436,-1.845782
THE,NA,Theale,51.433395,-1.074968
TEO,NA,Theobalds Grove,51.692162,-0.035216
TTF,NA,Thetford,52.419384,0.744109
THI,NA,Thirsk,54.228489,-1.372573
TBY,NA,Thornaby,54.559734,-1.301006
TNN,NA,Thorne North,53.616329,-0.972006
TNS,NA,Thorne South,53.602707,-0.957227
THO,NA,Thornford,50.911377,-2.57889
THB,NA,Thornliebank,55.810642,-4.312201
TNA,NA,Thornton Abbey,53.653942,-0.323458
TTH,NA,Thornton Heath,51.399181,-0.100981
THT,NA,Thorntonhall,55.767746,-4.250674
TPB,NA,Thorpe Bay,51.537586,0.762828
TPC,NA,Thorpe Culvert,53.123108,0.19982
TLS,NA,Thorpe-Le-Soken,51.847698,1.162258
TBD,NA,Three Bridges,51.116863,-0.161162
TOK,NA,Three Oaks,50.900658,0.612558
THU,NA,Thurgarton,53.02924,-0.962157
THC,NA,Thurnscoe,53.545033,-1.308775
THS,NA,Thurso,58.590092,-3.527548
TRS,NA,Thurston,52.249699,0.808347
TBR,NA,Tilbury Riverside,51.451862,0.36467
TIL,NA,Tilbury Town,51.462879,0.353724
THL,NA,Tile Hill,52.394798,-1.594357
TLH,NA,Tilehurst,51.471333,-1.029754
TIP,NA,Tipton,52.53039,-2.065499
TIR,NA,Tir-Phil,51.72086,-3.246424
TIS,NA,Tisbury,51.060257,-2.078456
TVP,NA,Tiverton Parkway,50.917477,-3.359979
TOD,NA,Todmorden,53.713612,-2.099977
TOL,NA,Tolworth,51.37677,-0.280098
TPN,NA,Ton Pentre,51.647942,-3.485801
TON,NA,Tonbridge,51.191132,0.269715
TDU,NA,Tondu,51.548492,-3.595064
TNF,NA,Tonfanau,52.613789,-4.123919
TNP,NA,Tonypandy,51.61961,-3.450216
TOO,NA,Tooting,51.419914,-0.16053
TOP,NA,Topsham,50.685989,-3.4637
TQY,NA,Torquay,50.461014,-3.544095
TRR,NA,Torre,50.472664,-3.547292
TOT,NA,Totnes,50.435623,-3.688317
TOM,NA,Tottenham Hale,51.588257,-0.059914
TTN,NA,Totton,50.917953,-1.482138
TWN,NA,Town Green,53.542807,-2.9045
TRA,NA,Trafford Park,53.454899,-2.310836
TRF,NA,Trefforest,51.591419,-3.325157
TRE,NA,Trefforest Estate,51.568417,-3.2913
TRH,NA,Trehafod,51.609661,-3.380569
TRB,NA,Treherbert,51.671577,-3.53575
TRY,NA,Treorchy,51.657593,-3.504922
TRM,NA,Trimley,51.976509,1.318431
TRI,NA,Tring,51.800327,-0.622253
TRD,NA,Troed-Y-Rhiw,51.71257,-3.346066
TRN,NA,Troon,55.543045,-4.654731
TRO,NA,Trowbridge,51.319954,-2.215222
TRU,NA,Truro,50.263603,-5.063017
TUL,NA,Tulloch,56.883984,-4.701509
TUH,NA,Tulse Hill,51.439713,-0.10506
TBW,NA,Tunbridge Wells,51.130119,0.262435
TUR,NA,Turkey Street,51.673481,-0.047594
TUT,NA,Tutbury & Hatton,52.864342,-1.682085
TWB,NA,Tweedbank,55.604394,-2.764936
TWI,NA,Twickenham,51.450321,-0.329136
TWY,NA,Twyford,51.475605,-0.86389
TYC,NA,Ty Croes,53.222885,-4.476033
TGS,NA,Ty Glas,51.519104,-3.193341
TYG,NA,Tygwyn,52.893307,-4.079579
TYL,NA,Tyndrum Lower,56.433407,-4.714873
TYS,NA,Tyseley,52.453819,-1.839568
TYW,NA,Tywyn,52.584663,-4.092974
UCK,NA,Uckfield,50.968651,0.095048
UDD,NA,Uddingston,55.823669,-4.086266
ULC,NA,Ulceby,53.619457,-0.30063
ULL,NA,Ulleskelf,53.85276,-1.215536
ULV,NA,Ulverston,54.191872,-3.097327
UMB,NA,Umberleigh,50.996704,-3.982228
UNI,NA,University (Birmingham),52.451218,-1.936691
UHA,NA,Uphall,55.919395,-3.499279
UPL,NA,Upholland,53.528192,-2.741346
UPM,NA,Upminster,51.559307,0.251938
UPH,NA,Upper Halliford,51.413036,-0.429722
UHL,NA,Upper Holloway,51.563652,-0.129293
UTY,NA,Upper Tyndrum,56.434551,-4.7036
UWL,NA,Upper Warlingham,51.307972,-0.077498
UPT,NA,Upton,53.385712,-3.084013
UPW,NA,Upwey,50.64838,-2.466731
URM,NA,Urmston,53.448203,-2.35344
UTT,NA,Uttoxeter,52.897041,-1.857258
VAL,NA,Valley,53.281281,-4.563436
VXH,NA,Vauxhall,51.485686,-0.124025
VIR,NA,Virginia Water,51.401257,-0.562389
WDO,NA,Waddon,51.367062,-0.116688
WAD,NA,Wadhurst,51.07338,0.312483
WFL,NA,Wainfleet,53.105373,0.234774
WKK,NA,Wakefield Kirkgate,53.67897,-1.488254
WKF,NA,Wakefield Westgate,53.681736,-1.506386
WKD,NA,Walkden,53.520313,-2.395128
WLG,NA,Wallasey Grove Road,53.428049,-3.06982
WLV,NA,Wallasey Village,53.422695,-3.069901
WLT,NA,Wallington,51.360424,-0.151431
WAF,NA,Wallyford,55.942322,-3.013417
WAM,NA,Walmer,51.203808,1.382819
WSL,NA,Walsall,52.584282,-1.98521
WDN,NA,Walsden,53.696056,-2.104719
WLC,NA,Waltham Cross,51.684834,-0.026846
WHC,NA,Walthamstow Central,51.583092,-0.019715
WMW,NA,Walthamstow Queens Road,51.581367,-0.024113
WAO,NA,Walton (Merseyside),53.456346,-2.965794
WAL,NA,Walton-On-Thames,51.372364,-0.413873
WON,NA,Walton-On-The-Naze,51.846603,1.268192
WAN,NA,Wanborough,51.245129,-0.66756
WSW,NA,Wandsworth Common,51.446072,-0.165239
WWR,NA,Wandsworth Road,51.470829,-0.138332
WNT,NA,Wandsworth Town,51.460812,-0.187679
WNP,NA,Wanstead Park,51.551746,0.025089
WPE,NA,Wapping,51.50372,-0.05629
WBL,NA,Warblington,50.853382,-0.967163
WAR,NA,Ware,51.808056,-0.028729
WRM,NA,Wareham,50.692425,-2.114646
WGV,NA,Wargrave,51.498217,-0.876589
WMN,NA,Warminster,51.206722,-2.177467
WNH,NA,Warnham,51.0933,-0.329193
WBQ,NA,Warrington Bank Quay,53.385509,-2.602871
WAC,NA,Warrington Central,53.391857,-2.592434
WRW,NA,Warwick,52.286861,-1.582155
WRP,NA,Warwick Parkway,52.286268,-1.613493
WTO,NA,Water Orton,52.518379,-1.743538
WBC,NA,Waterbeach,52.26268,0.196555
WTR,NA,Wateringbury,51.249214,0.423039
WLO,NA,Waterloo (Merseyside),53.474968,-3.025532
WFH,NA,Watford High Street,51.652743,-0.391656
WFJ,NA,Watford Junction,51.663475,-0.396506
WFN,NA,Watford North,51.675087,-0.3903
WTG,NA,Watlington,52.672703,0.382736
WAS,NA,Watton-At-Stone,51.857201,-0.119521
WNG,NA,Waun-Gron Park,51.486366,-3.228492
WAV,NA,Wavertree Technology Park,53.405132,-2.922964
WED,NA,Wedgwood,52.951839,-2.171135
WER,NA,Wedgwood Lane,52.95097,-2.17558
WEE,NA,Weeley,51.852566,1.114661
WET,NA,Weeton,53.923813,-1.581206
WMG,NA,Welham Green,51.736324,-0.209989
WLI,NA,Welling,51.464966,0.101872
WEL,NA,Wellingborough,52.303867,-0.676496
WLN,NA,Wellington (Shropshire),52.700928,-2.516438
WEN,NA,Wells Next The Sea,52.95288,0.850696
WLP,NA,Welshpool,52.656998,-3.141297
WGC,NA,Welwyn Garden City,51.800957,-0.203081
WLW,NA,Welwyn North,51.824165,-0.191992
WEM,NA,Wem,52.856293,-2.718784
WMB,NA,Wembley Central,51.551468,-0.296592
WCX,NA,Wembley Stadium,51.553993,-0.284958
WMS,NA,Wemyss Bay,55.876656,-4.888525
WND,NA,Wendover,51.76193,-0.747778
WNN,NA,Wennington,54.123531,-2.587517
WSA,NA,West Allerton,53.36912,-2.907
WBP,NA,West Brompton,51.487289,-0.195265
WBY,NA,West Byfleet,51.339394,-0.505468
WCL,NA,West Calder,55.853848,-3.567045
WCY,NA,West Croydon,51.378517,-0.101844
WDT,NA,West Drayton,51.509827,-0.472515
WDU,NA,West Dulwich,51.440388,-0.090646
WEA,NA,West Ealing,51.513123,-0.320792
WEH,NA,West Ham,51.528709,0.005323
WHD,NA,West Hampstead,51.547110000000004,-0.191016
WHP,NA,West Hampstead Thameslink,51.548644,-0.1924
WHR,NA,West Horndon,51.56744,0.341807
WKB,NA,West Kilbride,55.696842,-4.851365
WKI,NA,West Kirby,53.373171,-3.183771
WMA,NA,West Malling,51.291584,0.418098
WNW,NA,West Norwood,51.431583,-0.102517
WRU,NA,West Ruislip,51.569708,-0.437812
WRN,NA,West Runton,52.935497,1.245516
WLD,NA,West St Leonards,50.85368,0.540303
WSU,NA,West Sutton,51.365734,-0.20437
WWI,NA,West Wickham,51.381577,-0.015495
WWO,NA,West Worthing,50.818111,-0.392983
WSB,NA,Westbury,51.26693,-2.199202
WCF,NA,Westcliff,51.537437,0.692146
WCB,NA,Westcombe Park,51.484428,0.017787
WHA,NA,Westenhanger,51.095444,1.037775
WTA,NA,Wester Hailes,55.913727,-3.284654
WFI,NA,Westerfield,52.081417,1.167082
WES,NA,Westerton,55.905479,-4.335444
WGA,NA,Westgate-On-Sea,51.381386,1.338402
WHG,NA,Westhoughton,53.555775,-2.523773
WNM,NA,Weston Milton,51.348579,-2.942236
WSM,NA,Weston-Super-Mare,51.34454,-2.972301
WRL,NA,Wetheral,54.883308,-2.833897
WYB,NA,Weybridge,51.361248,-0.457352
WEY,NA,Weymouth,50.61515,-2.455103
WBR,NA,Whaley Bridge,53.330402,-1.983448
WHE,NA,Whalley,53.824165,-2.412186
WTS,NA,Whatstandwell,53.083076,-1.504312
WFF,NA,Whifflet,55.852596,-4.022313
WHM,NA,Whimple,50.768253,-3.354243
WNL,NA,Whinhill,55.938396,-4.746744
WHN,NA,Whiston,53.413932,-2.796407
WTB,NA,Whitby,54.484615,-0.615376
WHT,NA,Whitchurch (Glamorgan),51.520599,-3.222209
WCH,NA,Whitchurch (Hants),51.237358,-1.338183
WTC,NA,Whitchurch (Shrops),52.968048,-2.671497
WHL,NA,White Hart Lane,51.604622,-0.070759
WNY,NA,White Notley,51.839069,0.596874
ZLW,NA,Whitechapel,51.519091,-0.061404
WCR,NA,Whitecraigs,55.790001,-4.310977
WTH,NA,Whitehaven,54.552864,-3.586843
WTL,NA,Whitland,51.817989,-4.614454
WBD,NA,Whitley Bridge,53.698685,-1.159331
WTE,NA,Whitlocks End,52.3918,-1.851545
WHI,NA,Whitstable,51.358204,1.033577
WLE,NA,Whittlesea,52.549522,-0.116602
WLF,NA,Whittlesford Parkway,52.104092,0.165388
WTN,NA,Whitton,51.447109,-0.356607
WWL,NA,Whitwell,53.280987,-1.20055
WHY,NA,Whyteleafe,51.309834,-0.081725
WHS,NA,Whyteleafe South,51.303474,-0.077684
WCK,NA,Wick,58.441788,-3.097965
WIC,NA,Wickford,51.615025,0.519052
WCM,NA,Wickham Market,52.151421,1.398685
WDD,NA,Widdrington,55.241428,-1.61623
WID,NA,Widnes,53.37849,-2.733556
WMR,NA,Widney Manor,52.396175,-1.773647
WGN,NA,Wigan North Western,53.543564,-2.632287
WGW,NA,Wigan Wallgate,53.545353,-2.633814
WGT,NA,Wigton,54.829365,-3.164373
WMI,NA,Wildmill,51.520824,-3.579684
WIJ,NA,Willesden Junction,51.5322,-0.2435
WLM,NA,Williamwood,55.79398,-4.290462
WIL,NA,Willington,52.854069,-1.563356
WMC,NA,Wilmcote,52.222618,-1.755493
WML,NA,Wilmslow,53.326595,-2.225177
WNE,NA,Wilnecote,52.610817,-1.679499
WIM,NA,Wimbledon,51.421528,-0.206496
WBO,NA,Wimbledon Chase,51.409958,-0.214138
WSE,NA,Winchelsea,50.933716,0.701241
WIN,NA,Winchester,51.067303,-1.320628
WNF,NA,Winchfield,51.284481,-0.90733
WIH,NA,Winchmore Hill,51.633896,-0.101314
WDM,NA,Windermere,54.379745,-2.904339
WNC,NA,Windsor & Eton Central,51.48275,-0.608806
WNR,NA,Windsor & Eton Riverside,51.486309,-0.605804
WNS,NA,Winnersh,51.430779,-0.87795
WTI,NA,Winnersh Triangle,51.437233,-0.895052
WSF,NA,Winsford,53.190505,-2.494669
WSH,NA,Wishaw,55.772346,-3.927267
WTM,NA,Witham,51.805702,0.641373
WTY,NA,Witley,51.133362,-0.645059
WTT,NA,Witton,52.51141,-1.883566
WVF,NA,Wivelsfield,50.964249,-0.121633
WIV,NA,Wivenhoe,51.855789,0.955116
WOB,NA,Woburn Sands,52.01817,-0.654073
WOK,NA,Woking (Main),51.31847,-0.557814
WKM,NA,Wokingham,51.411556,-0.842473
WOH,NA,Woldingham,51.289547,-0.051013
WVH,NA,Wolverhampton,52.587818,-2.119529
WOL,NA,Wolverton,52.064861,-0.80377
WOM,NA,Wombwell,53.517754,-1.417811
WDE,NA,Wood End,52.344143,-1.844372
WST,NA,Wood Street,51.587284,-0.00221
WDB,NA,Woodbridge,52.089855,1.31807
WGR,NA,Woodgrange Park,51.548706,0.04514
WDL,NA,Woodhall,55.931339,-4.655614
WDH,NA,Woodhouse,53.364639,-1.358278
WDS,NA,Woodlesford,53.756969,-1.443328
WLY,NA,Woodley,53.429245,-2.093275
WME,NA,Woodmansterne,51.31012,-0.154887
WSR,NA,Woodsmoor,53.386055,-2.1413
WOO,NA,Wool,50.68148,-2.220775
WLS,NA,Woolston,50.898556,-1.37713
WWA,NA,Woolwich Arsenal,51.489815,0.069883
WWD,NA,Woolwich Dockyard,51.49099,0.054083
WWW,NA,Wootton Wawen,52.265831,-1.784561
WOF,NA,Worcester Foregate Street,52.194801,-2.220885
WCP,NA,Worcester Park,51.381649,-0.245415
WOS,NA,Worcester Shrub Hill,52.194817,-2.210642
WOP,NA,Worcestershire Parkway,52.15622,-2.1597
WKG,NA,Workington,54.645061,-3.558626
WRK,NA,Worksop,53.311005,-1.123444
WOR,NA,Worle,51.357995,-2.909703
WPL,NA,Worplesdon,51.288189,-0.581705
WRT,NA,Worstead,52.777256,1.404282
WRH,NA,Worthing,50.818768,-0.375924
WRB,NA,Wrabness,51.939228,1.17014
WRY,NA,Wraysbury,51.457661,-0.541906
WRE,NA,Wrenbury,53.019311,-2.596089
WRS,NA,Wressle,53.773212,-0.924169
WXC,NA,Wrexham Central,53.044876,-2.996385
WRX,NA,Wrexham General,53.05022,-3.002467
WYE,NA,Wye,51.185463,0.929188
WYM,NA,Wylam,54.974991,-1.814058
WYL,NA,Wylde Green,52.545599,-1.831461
WMD,NA,Wymondham,52.564804,1.11769
WYT,NA,Wythall,52.380131,-1.866284
YAL,NA,Yalding,51.226067,0.4118
YRD,NA,Yardley Wood,52.421478,-1.854396
YRM,NA,Yarm,54.506115,-1.35597
YMH,NA,Yarmouth (Isle of Wight),50.70765,-1.50002
YAE,NA,Yate,51.540554,-2.432541
YAT,NA,Yatton,51.390965,-2.827815
YEO,NA,Yeoford,50.77684,-3.726109
YVJ,NA,Yeovil Junction,50.924686,-2.613198
YVP,NA,Yeovil Pen Mill,50.944466,-2.613461
YET,NA,Yetminster,50.896114,-2.573004
YNW,NA,Ynyswen,51.668095,-3.526959
